{
"type": "FeatureCollection",
"name": "flood_risk_analysis_shelters",
"crs": { "type": "name", "properties": { "name": "urn:ogc:def:crs:OGC:1.3:CRS84" } },
"features": [
{ "type": "Feature", "properties": { "name": "北市大附小", "address": "公園路29號", "longitude": 120.913, "latitude": 22.4797, "capacity": 157, "county": "臺北市", "district": "公園路", "village": "黎明里", "disaster_types": "震災", "indoor": true, "outdoor": false, "suitable_for_vulnerable": false, "manager": "邱靜萍", "phone": "02-23110395#660", "risk_level": "Medium Risk", "risk_distance": 1000 }, "geometry": { "type": "Point", "coordinates": [ 120.913, 22.4797 ] } },
{ "type": "Feature", "properties": { "name": "德安市民活動中心", "address": "安康路二段183巷13-4號", "longitude": 121.0, "latitude": 24.0, "capacity": 22, "county": "新北市", "district": "安康路", "village": "德安里", "disaster_types": "水災,土石流", "indoor": true, "outdoor": false, "suitable_for_vulnerable": false, "manager": "吳英同", "phone": "02-29112281#1209", "risk_level": "Low Risk", "risk_distance": 2000 }, "geometry": { "type": "Point", "coordinates": [ 121.0, 24.0 ] } },
{ "type": "Feature", "properties": { "name": "有木國小", "address": "有木里131號", "longitude": 121.4373, "latitude": 24.8533, "capacity": 109, "county": "新北市", "district": "有木里", "village": "有木里", "disaster_types": "水災,震災,土石流,海嘯", "indoor": true, "outdoor": true, "suitable_for_vulnerable": false, "manager": "吳政謀", "phone": "02-26720067分機13", "risk_level": "Low Risk", "risk_distance": 1000 }, "geometry": { "type": "Point", "coordinates": [ 121.4373, 24.8533 ] } },
{ "type": "Feature", "properties": { "name": "五寮市民活動中心", "address": "五寮93號", "longitude": 121.365455, "latitude": 24.863449, "capacity": 137, "county": "新北市", "district": "五寮9", "village": "五寮里", "disaster_types": "水災,震災,土石流,海嘯", "indoor": true, "outdoor": false, "suitable_for_vulnerable": false, "manager": "吳香其", "phone": "02-26711017分機207", "risk_level": "Medium Risk", "risk_distance": 500 }, "geometry": { "type": "Point", "coordinates": [ 121.365455, 24.863449 ] } },
{ "type": "Feature", "properties": { "name": "烏來國民中小學", "address": "啦卡路5號", "longitude": 121.553147, "latitude": 24.863755, "capacity": 152, "county": "新北市", "district": "啦卡路", "village": "烏來里", "disaster_types": "水災,土石流", "indoor": true, "outdoor": false, "suitable_for_vulnerable": true, "manager": "林俊傑", "phone": "02-26616482＃50", "risk_level": "High Risk", "risk_distance": 500 }, "geometry": { "type": "Point", "coordinates": [ 121.553147, 24.863755 ] } },
{ "type": "Feature", "properties": { "name": "信賢活動中心", "address": "信福路48號", "longitude": 121.548453, "latitude": 24.883684, "capacity": 30, "county": "新北市", "district": "信福路", "village": "信賢里", "disaster_types": "水災,土石流", "indoor": true, "outdoor": false, "suitable_for_vulnerable": true, "manager": "趙絡涵", "phone": "02-26616442", "risk_level": "High Risk", "risk_distance": 1000 }, "geometry": { "type": "Point", "coordinates": [ 121.548453, 24.883684 ] } },
{ "type": "Feature", "properties": { "name": "綜合活動中心", "address": "烏來街34號", "longitude": 121.548453, "latitude": 24.883684, "capacity": 30, "county": "新北市", "district": "烏來街", "village": "烏來里", "disaster_types": "水災,土石流", "indoor": true, "outdoor": false, "suitable_for_vulnerable": true, "manager": "趙絡涵", "phone": "02-26616442", "risk_level": "High Risk", "risk_distance": 1000 }, "geometry": { "type": "Point", "coordinates": [ 121.548453, 24.883684 ] } },
{ "type": "Feature", "properties": { "name": "忠治活動中心", "address": "忠治14號", "longitude": 121.548453, "latitude": 24.883684, "capacity": 30, "county": "新北市", "district": "忠治1", "village": "忠治里", "disaster_types": "水災,土石流", "indoor": true, "outdoor": false, "suitable_for_vulnerable": true, "manager": "趙絡涵", "phone": "02-26616442", "risk_level": "Low Risk", "risk_distance": 2000 }, "geometry": { "type": "Point", "coordinates": [ 121.548453, 24.883684 ] } },
{ "type": "Feature", "properties": { "name": "福山活動中心", "address": "2鄰李茂岸51號", "longitude": 121.548453, "latitude": 24.883684, "capacity": 50, "county": "新北市", "district": "2鄰李", "village": "福山里", "disaster_types": "水災,土石流", "indoor": true, "outdoor": false, "suitable_for_vulnerable": true, "manager": "趙絡涵", "phone": "02-26616442", "risk_level": "Medium Risk", "risk_distance": 500 }, "geometry": { "type": "Point", "coordinates": [ 121.548453, 24.883684 ] } },
{ "type": "Feature", "properties": { "name": "烏來活動中心", "address": "13鄰環山路82巷45號", "longitude": 121.548453, "latitude": 24.883684, "capacity": 50, "county": "新北市", "district": "13鄰", "village": "烏來里", "disaster_types": "水災,土石流", "indoor": true, "outdoor": false, "suitable_for_vulnerable": true, "manager": "趙絡涵", "phone": "02-26616442", "risk_level": "Low Risk", "risk_distance": 500 }, "geometry": { "type": "Point", "coordinates": [ 121.548453, 24.883684 ] } },
{ "type": "Feature", "properties": { "name": "福山國小", "address": "福山里李茂岸56號", "longitude": 121.548453, "latitude": 24.883684, "capacity": 305, "county": "新北市", "district": "福山里", "village": "福山里", "disaster_types": "水災,土石流", "indoor": true, "outdoor": false, "suitable_for_vulnerable": true, "manager": "高世昌", "phone": "2661-6421轉302", "risk_level": "High Risk", "risk_distance": 0 }, "geometry": { "type": "Point", "coordinates": [ 121.548453, 24.883684 ] } },
{ "type": "Feature", "properties": { "name": "龜山國小", "address": "新北市新店區新烏路三段99巷10號", "longitude": 121.5532, "latitude": 24.9022, "capacity": 75, "county": "新北市", "district": "新北市新店區", "village": "龜山里", "disaster_types": "水災,土石流", "indoor": true, "outdoor": true, "suitable_for_vulnerable": false, "manager": "吳英同", "phone": "02-29112281#1209", "risk_level": "Low Risk", "risk_distance": 2000 }, "geometry": { "type": "Point", "coordinates": [ 121.5532, 24.9022 ] } },
{ "type": "Feature", "properties": { "name": "廣興里辦公處", "address": "新北市新店區平廣路一段35巷3號", "longitude": 121.533799, "latitude": 24.902531, "capacity": 37, "county": "新北市", "district": "新北市新店區", "village": "廣興里", "disaster_types": "震災", "indoor": true, "outdoor": false, "suitable_for_vulnerable": false, "manager": "吳英同", "phone": "02-29112281#1209", "risk_level": "Low Risk", "risk_distance": 0 }, "geometry": { "type": "Point", "coordinates": [ 121.533799, 24.902531 ] } },
{ "type": "Feature", "properties": { "name": "龜山市民活動中心", "address": "新北市新店區新烏路3段136號", "longitude": 121.552, "latitude": 24.9031, "capacity": 133, "county": "新北市", "district": "新北市新店區", "village": "龜山里", "disaster_types": "水災,土石流", "indoor": true, "outdoor": true, "suitable_for_vulnerable": false, "manager": "吳英同", "phone": "02-29112281#1209", "risk_level": "High Risk", "risk_distance": 500 }, "geometry": { "type": "Point", "coordinates": [ 121.552, 24.9031 ] } },
{ "type": "Feature", "properties": { "name": "石里倉庫", "address": "石27之1號", "longitude": 121.745228, "latitude": 24.904686, "capacity": 10, "county": "新北市", "district": "石2", "village": "石[石曹]里", "disaster_types": "水災,震災,土石流,海嘯", "indoor": true, "outdoor": false, "suitable_for_vulnerable": false, "manager": "徐瑄維", "phone": "02-26657251#240", "risk_level": "High Risk", "risk_distance": 2000 }, "geometry": { "type": "Point", "coordinates": [ 121.745228, 24.904686 ] } },
{ "type": "Feature", "properties": { "name": "大埔國小", "address": "大埔路130號", "longitude": 121.3665, "latitude": 24.9057, "capacity": 625, "county": "新北市", "district": "大埔路", "village": "大埔里", "disaster_types": "水災,震災,土石流,海嘯", "indoor": true, "outdoor": true, "suitable_for_vulnerable": false, "manager": "陳秋榕", "phone": "02-26712523分機150", "risk_level": "High Risk", "risk_distance": 1000 }, "geometry": { "type": "Point", "coordinates": [ 121.3665, 24.9057 ] } },
{ "type": "Feature", "properties": { "name": "明德高中", "address": "中正路二段399號", "longitude": 121.3639, "latitude": 24.9069, "capacity": 1569, "county": "新北市", "district": "中正路", "village": "大埔里", "disaster_types": "水災,震災,土石流,海嘯", "indoor": true, "outdoor": true, "suitable_for_vulnerable": true, "manager": "劉懷恩", "phone": "02-26723302分機240", "risk_level": "Medium Risk", "risk_distance": 2000 }, "geometry": { "type": "Point", "coordinates": [ 121.3639, 24.9069 ] } },
{ "type": "Feature", "properties": { "name": "竹崙市民活動中心", "address": "竹崙里146號", "longitude": 121.4349, "latitude": 24.9088, "capacity": 113, "county": "新北市", "district": "竹崙里", "village": "竹崙里", "disaster_types": "水災,震災,土石流,海嘯", "indoor": true, "outdoor": false, "suitable_for_vulnerable": false, "manager": "吳香其", "phone": "02-26711017分機207", "risk_level": "Medium Risk", "risk_distance": 1000 }, "geometry": { "type": "Point", "coordinates": [ 121.4349, 24.9088 ] } },
{ "type": "Feature", "properties": { "name": "臺北榮家", "address": "白雞127號", "longitude": 121.3937, "latitude": 24.9102, "capacity": 339, "county": "新北市", "district": "白雞1", "village": "嘉添里", "disaster_types": "水災,震災,土石流,海嘯", "indoor": true, "outdoor": false, "suitable_for_vulnerable": false, "manager": "龍雨舞", "phone": "02-2673-1201分機501", "risk_level": "Medium Risk", "risk_distance": 1000 }, "geometry": { "type": "Point", "coordinates": [ 121.3937, 24.9102 ] } },
{ "type": "Feature", "properties": { "name": "康橋高級中學", "address": "新北市新店區華城路800號", "longitude": 121.4978, "latitude": 24.9109, "capacity": 250, "county": "新北市", "district": "新北市新店區", "village": "華城里", "disaster_types": "水災", "indoor": true, "outdoor": true, "suitable_for_vulnerable": false, "manager": "吳英同", "phone": "02-29112281#1209", "risk_level": "High Risk", "risk_distance": 2000 }, "geometry": { "type": "Point", "coordinates": [ 121.4978, 24.9109 ] } },
{ "type": "Feature", "properties": { "name": "民義國小", "address": "白雞路40號", "longitude": 121.3755, "latitude": 24.912, "capacity": 975, "county": "新北市", "district": "白雞路", "village": "嘉添里", "disaster_types": "水災,震災,土石流,海嘯", "indoor": true, "outdoor": true, "suitable_for_vulnerable": false, "manager": "宋長燕", "phone": "02-26711895分機830", "risk_level": "Medium Risk", "risk_distance": 1000 }, "geometry": { "type": "Point", "coordinates": [ 121.3755, 24.912 ] } },
{ "type": "Feature", "properties": { "name": "屈尺國小廣興分校", "address": "新店市廣興路57號。", "longitude": 121.5396, "latitude": 24.9125, "capacity": 37, "county": "新北市", "district": "新店市", "village": "廣興里", "disaster_types": "水災,震災", "indoor": true, "outdoor": false, "suitable_for_vulnerable": false, "manager": "吳英同", "phone": "02-29112281#1209", "risk_level": "High Risk", "risk_distance": 0 }, "geometry": { "type": "Point", "coordinates": [ 121.5396, 24.9125 ] } },
{ "type": "Feature", "properties": { "name": "屈尺國小", "address": "新北市新店區屈尺路五十五號", "longitude": 121.5463, "latitude": 24.9225, "capacity": 320, "county": "新北市", "district": "新北市新店區", "village": "屈尺里", "disaster_types": "水災,震災,土石流", "indoor": true, "outdoor": true, "suitable_for_vulnerable": false, "manager": "吳英同", "phone": "02-29112281#1209", "risk_level": "High Risk", "risk_distance": 500 }, "geometry": { "type": "Point", "coordinates": [ 121.5463, 24.9225 ] } },
{ "type": "Feature", "properties": { "name": "屈尺市民活動中心", "address": "新北市新店區屈尺路125號", "longitude": 121.544999, "latitude": 24.923518, "capacity": 75, "county": "新北市", "district": "新北市新店區", "village": "屈尺里", "disaster_types": "水災,土石流", "indoor": true, "outdoor": true, "suitable_for_vulnerable": false, "manager": "吳英同", "phone": "29112281#1209", "risk_level": "Medium Risk", "risk_distance": 1000 }, "geometry": { "type": "Point", "coordinates": [ 121.544999, 24.923518 ] } },
{ "type": "Feature", "properties": { "name": "大成國小", "address": "成福路215巷2號", "longitude": 121.4275, "latitude": 24.9243, "capacity": 187, "county": "新北市", "district": "成福路", "village": "成福里", "disaster_types": "水災,震災,土石流,海嘯", "indoor": true, "outdoor": true, "suitable_for_vulnerable": false, "manager": "陳俊佳", "phone": "02-26726521分機115", "risk_level": "Medium Risk", "risk_distance": 0 }, "geometry": { "type": "Point", "coordinates": [ 121.4275, 24.9243 ] } },
{ "type": "Feature", "properties": { "name": "建安國小", "address": "建安路67號", "longitude": 121.4471, "latitude": 24.9264, "capacity": 292, "county": "新北市", "district": "建安路", "village": "安坑里", "disaster_types": "水災,震災,土石流,海嘯", "indoor": true, "outdoor": true, "suitable_for_vulnerable": false, "manager": "楊慧淳", "phone": "02-26726783分機102", "risk_level": "Low Risk", "risk_distance": 1000 }, "geometry": { "type": "Point", "coordinates": [ 121.4471, 24.9264 ] } },
{ "type": "Feature", "properties": { "name": "安溪國中", "address": "大同路135號", "longitude": 121.3728, "latitude": 24.9266, "capacity": 1675, "county": "新北市", "district": "大同路", "village": "中正里", "disaster_types": "水災,震災,土石流,海嘯", "indoor": true, "outdoor": true, "suitable_for_vulnerable": false, "manager": "周中明", "phone": "02-26717851分機150", "risk_level": "High Risk", "risk_distance": 500 }, "geometry": { "type": "Point", "coordinates": [ 121.3728, 24.9266 ] } },
{ "type": "Feature", "properties": { "name": "中園國小", "address": "弘園街22號", "longitude": 121.3672, "latitude": 24.9278, "capacity": 926, "county": "新北市", "district": "弘園街", "village": "中埔里", "disaster_types": "水災,震災,土石流,海嘯", "indoor": true, "outdoor": true, "suitable_for_vulnerable": false, "manager": "黃邵偉", "phone": "02-86712590分機831", "risk_level": "Medium Risk", "risk_distance": 0 }, "geometry": { "type": "Point", "coordinates": [ 121.3672, 24.9278 ] } },
{ "type": "Feature", "properties": { "name": "介壽國小", "address": "大同路1號", "longitude": 121.3785, "latitude": 24.9298, "capacity": 289, "county": "新北市", "district": "大同路", "village": "介壽里", "disaster_types": "水災,震災,土石流,海嘯", "indoor": true, "outdoor": true, "suitable_for_vulnerable": false, "manager": "劉志銘", "phone": "02-26712392分機41", "risk_level": "Medium Risk", "risk_distance": 500 }, "geometry": { "type": "Point", "coordinates": [ 121.3785, 24.9298 ] } },
{ "type": "Feature", "properties": { "name": "安溪國小", "address": "中華路42號", "longitude": 121.3729, "latitude": 24.9304, "capacity": 435, "county": "新北市", "district": "中華路", "village": "安溪里", "disaster_types": "水災,震災,土石流,海嘯", "indoor": true, "outdoor": true, "suitable_for_vulnerable": true, "manager": "徐銘穗", "phone": "02-26731488分機221", "risk_level": "High Risk", "risk_distance": 500 }, "geometry": { "type": "Point", "coordinates": [ 121.3729, 24.9304 ] } },
{ "type": "Feature", "properties": { "name": "成福國小", "address": "溪東路213號", "longitude": 121.4057, "latitude": 24.9332, "capacity": 261, "county": "新北市", "district": "溪東路", "village": "溪東里", "disaster_types": "水災,震災,土石流,海嘯", "indoor": true, "outdoor": true, "suitable_for_vulnerable": true, "manager": "李國梅", "phone": "02-86764945分機12", "risk_level": "Medium Risk", "risk_distance": 0 }, "geometry": { "type": "Point", "coordinates": [ 121.4057, 24.9332 ] } },
{ "type": "Feature", "properties": { "name": "三峽國小", "address": "中山路16號", "longitude": 121.3697, "latitude": 24.9345, "capacity": 581, "county": "新北市", "district": "中山路", "village": "永?里", "disaster_types": "水災,震災,土石流,海嘯", "indoor": true, "outdoor": true, "suitable_for_vulnerable": false, "manager": "歐原誌", "phone": "02-26711018分機832", "risk_level": "High Risk", "risk_distance": 0 }, "geometry": { "type": "Point", "coordinates": [ 121.3697, 24.9345 ] } },
{ "type": "Feature", "properties": { "name": "長青市民活動中心", "address": "中山路65號", "longitude": 121.367, "latitude": 24.93479, "capacity": 166, "county": "新北市", "district": "中山路", "village": "永?里", "disaster_types": "水災,震災,土石流,海嘯", "indoor": true, "outdoor": false, "suitable_for_vulnerable": false, "manager": "吳香其", "phone": "26711017分機207", "risk_level": "High Risk", "risk_distance": 0 }, "geometry": { "type": "Point", "coordinates": [ 121.367, 24.93479 ] } },
{ "type": "Feature", "properties": { "name": "新北市坪林區公所", "address": "坪林101號", "longitude": 121.711784, "latitude": 24.93614, "capacity": 50, "county": "新北市", "district": "坪林1", "village": "坪林里", "disaster_types": "水災,震災,土石流,海嘯", "indoor": true, "outdoor": true, "suitable_for_vulnerable": true, "manager": "徐瑄維", "phone": "02-26657251#240", "risk_level": "Low Risk", "risk_distance": 2000 }, "geometry": { "type": "Point", "coordinates": [ 121.711784, 24.93614 ] } },
{ "type": "Feature", "properties": { "name": "新北市坪林區坪林國民小學", "address": "坪林114號", "longitude": 121.71088, "latitude": 24.936238, "capacity": 314, "county": "新北市", "district": "坪林1", "village": "坪林里", "disaster_types": "水災,震災,土石流,海嘯", "indoor": true, "outdoor": true, "suitable_for_vulnerable": true, "manager": "吳志?", "phone": "02-26656213", "risk_level": "Low Risk", "risk_distance": 0 }, "geometry": { "type": "Point", "coordinates": [ 121.71088, 24.936238 ] } },
{ "type": "Feature", "properties": { "name": "直潭國小", "address": "新北市新店區直潭路92號", "longitude": 121.5313, "latitude": 24.9378, "capacity": 1600, "county": "新北市", "district": "新北市新店區", "village": "直潭里", "disaster_types": null, "indoor": true, "outdoor": true, "suitable_for_vulnerable": false, "manager": "吳英同", "phone": "02-29112281#1209", "risk_level": "Low Risk", "risk_distance": 0 }, "geometry": { "type": "Point", "coordinates": [ 121.5313, 24.9378 ] } },
{ "type": "Feature", "properties": { "name": "新北市立坪林國民中學", "address": "國中路4號", "longitude": 121.712825, "latitude": 24.938007, "capacity": 1144, "county": "新北市", "district": "國中路", "village": "坪林里", "disaster_types": "水災,震災,土石流,海嘯", "indoor": true, "outdoor": true, "suitable_for_vulnerable": true, "manager": "許書哲", "phone": "02-26656210#13", "risk_level": "Medium Risk", "risk_distance": 0 }, "geometry": { "type": "Point", "coordinates": [ 121.712825, 24.938007 ] } },
{ "type": "Feature", "properties": { "name": "三峽國中", "address": "復興路238號", "longitude": 121.3693, "latitude": 24.9391, "capacity": 1149, "county": "新北市", "district": "復興路", "village": "鳶山里", "disaster_types": "水災,震災,土石流,海嘯", "indoor": true, "outdoor": true, "suitable_for_vulnerable": false, "manager": "吳瑞祥", "phone": "02-26738030", "risk_level": "High Risk", "risk_distance": 0 }, "geometry": { "type": "Point", "coordinates": [ 121.3693, 24.9391 ] } },
{ "type": "Feature", "properties": { "name": "鶯歌高職", "address": "中正三路154號", "longitude": 121.335, "latitude": 24.9393, "capacity": 1513, "county": "新北市", "district": "中正三", "village": "二橋里", "disaster_types": "水災,震災,土石流,海嘯", "indoor": true, "outdoor": true, "suitable_for_vulnerable": false, "manager": "楊祚榮", "phone": "02-26780202", "risk_level": "Medium Risk", "risk_distance": 1000 }, "geometry": { "type": "Point", "coordinates": [ 121.335, 24.9393 ] } },
{ "type": "Feature", "properties": { "name": "龍埔國小", "address": "大學路6號", "longitude": 121.377883, "latitude": 24.940679, "capacity": 855, "county": "新北市", "district": "大學路", "village": "龍埔里", "disaster_types": "水災,震災,土石流,海嘯", "indoor": true, "outdoor": false, "suitable_for_vulnerable": true, "manager": "王進添", "phone": "26745666分機830", "risk_level": "Medium Risk", "risk_distance": 2000 }, "geometry": { "type": "Point", "coordinates": [ 121.377883, 24.940679 ] } },
{ "type": "Feature", "properties": { "name": "二橋國小", "address": "鶯歌區中正三路106號", "longitude": 121.3376, "latitude": 24.9409, "capacity": 1284, "county": "新北市", "district": "鶯歌區", "village": "二橋里", "disaster_types": "水災,震災,土石流,海嘯", "indoor": true, "outdoor": true, "suitable_for_vulnerable": false, "manager": "楊祚榮", "phone": "02-26780202", "risk_level": "High Risk", "risk_distance": 500 }, "geometry": { "type": "Point", "coordinates": [ 121.3376, 24.9409 ] } },
{ "type": "Feature", "properties": { "name": "新北市立尖山國民中學", "address": "鶯歌區國中街1號", "longitude": 121.3422, "latitude": 24.9437, "capacity": 622, "county": "新北市", "district": "鶯歌區", "village": "尖山里", "disaster_types": "水災,震災,土石流,海嘯", "indoor": true, "outdoor": true, "suitable_for_vulnerable": false, "manager": "楊祚榮", "phone": "02-26780202", "risk_level": "Medium Risk", "risk_distance": 0 }, "geometry": { "type": "Point", "coordinates": [ 121.3422, 24.9437 ] } },
{ "type": "Feature", "properties": { "name": "北大高中", "address": "大義路277號", "longitude": 121.376106, "latitude": 24.948608, "capacity": 1122, "county": "新北市", "district": "大義路", "village": "龍學里", "disaster_types": "水災,震災,土石流,海嘯", "indoor": true, "outdoor": true, "suitable_for_vulnerable": true, "manager": "朱肇維", "phone": "26742666分機600", "risk_level": "High Risk", "risk_distance": 1000 }, "geometry": { "type": "Point", "coordinates": [ 121.376106, 24.948608 ] } },
{ "type": "Feature", "properties": { "name": "桃子腳國民中小學", "address": "學勤路555號", "longitude": 121.382973, "latitude": 24.94923, "capacity": 3155, "county": "新北市", "district": "學勤路", "village": "南園里", "disaster_types": "震災,土石流,海嘯", "indoor": true, "outdoor": true, "suitable_for_vulnerable": false, "manager": "事務組長高志偉", "phone": "89703225#142", "risk_level": "Low Risk", "risk_distance": 1000 }, "geometry": { "type": "Point", "coordinates": [ 121.382973, 24.94923 ] } },
{ "type": "Feature", "properties": { "name": "南靖里活動中心", "address": "鶯歌區文化路395號", "longitude": 121.352776, "latitude": 24.950284, "capacity": 56, "county": "新北市", "district": "鶯歌區", "village": "南靖里", "disaster_types": "水災,土石流,海嘯", "indoor": true, "outdoor": false, "suitable_for_vulnerable": true, "manager": "宋榮美", "phone": "02-26780202", "risk_level": "High Risk", "risk_distance": 1000 }, "geometry": { "type": "Point", "coordinates": [ 121.352776, 24.950284 ] } },
{ "type": "Feature", "properties": { "name": "鶯歌國中", "address": "鶯歌區尖山埔路108號", "longitude": 121.3448, "latitude": 24.9504, "capacity": 1093, "county": "新北市", "district": "鶯歌區", "village": "同慶里", "disaster_types": "水災,震災,土石流,海嘯", "indoor": true, "outdoor": true, "suitable_for_vulnerable": false, "manager": "楊祚榮", "phone": "02-26780202", "risk_level": "Medium Risk", "risk_distance": 500 }, "geometry": { "type": "Point", "coordinates": [ 121.3448, 24.9504 ] } },
{ "type": "Feature", "properties": { "name": "新昇倉庫", "address": "大粗坑11之1號", "longitude": 121.725304, "latitude": 24.951077, "capacity": 10, "county": "新北市", "district": "大粗坑", "village": "上德里", "disaster_types": "水災,震災,土石流,海嘯", "indoor": true, "outdoor": false, "suitable_for_vulnerable": false, "manager": "徐瑄維", "phone": "02-26657251#240", "risk_level": "Medium Risk", "risk_distance": 0 }, "geometry": { "type": "Point", "coordinates": [ 121.725304, 24.951077 ] } },
{ "type": "Feature", "properties": { "name": "鶯歌國小", "address": "鶯歌區尖山埔路106號", "longitude": 121.3458, "latitude": 24.9512, "capacity": 1501, "county": "新北市", "district": "鶯歌區", "village": "同慶里", "disaster_types": "水災,震災,土石流,海嘯", "indoor": true, "outdoor": true, "suitable_for_vulnerable": false, "manager": "楊祚榮", "phone": "02-26780202", "risk_level": "Medium Risk", "risk_distance": 2000 }, "geometry": { "type": "Point", "coordinates": [ 121.3458, 24.9512 ] } },
{ "type": "Feature", "properties": { "name": "雙峰國小", "address": "新北市新店區北宜路三段66號", "longitude": 121.5755, "latitude": 24.9515, "capacity": 255, "county": "新北市", "district": "新北市新店區", "village": "雙坑里", "disaster_types": "水災,土石流", "indoor": true, "outdoor": true, "suitable_for_vulnerable": false, "manager": "吳英同", "phone": "02-29112281#1209", "risk_level": "Medium Risk", "risk_distance": 2000 }, "geometry": { "type": "Point", "coordinates": [ 121.5755, 24.9515 ] } },
{ "type": "Feature", "properties": { "name": "景文科技大學", "address": "新北市新店區安忠路99號", "longitude": 121.5093, "latitude": 24.952, "capacity": 1855, "county": "新北市", "district": "新北市新店區", "village": "公崙里", "disaster_types": "水災,震災,土石流", "indoor": true, "outdoor": true, "suitable_for_vulnerable": false, "manager": "吳英同", "phone": "02-29112281#1209", "risk_level": "High Risk", "risk_distance": 1000 }, "geometry": { "type": "Point", "coordinates": [ 121.5093, 24.952 ] } },
{ "type": "Feature", "properties": { "name": "雙城國小", "address": "台北縣新店市安康路三段322號", "longitude": 121.4865, "latitude": 24.9521, "capacity": 399, "county": "新北市", "district": "台北縣", "village": "雙城里", "disaster_types": "水災,震災", "indoor": true, "outdoor": true, "suitable_for_vulnerable": false, "manager": "吳英同", "phone": "02-29112281#1209", "risk_level": "Low Risk", "risk_distance": 500 }, "geometry": { "type": "Point", "coordinates": [ 121.4865, 24.9521 ] } },
{ "type": "Feature", "properties": { "name": "祖田市民活動中心", "address": "中央路4段285號2樓", "longitude": 121.411937, "latitude": 24.952776, "capacity": 50, "county": "新北市", "district": "中央路", "village": "祖田里", "disaster_types": "水災,土石流", "indoor": true, "outdoor": false, "suitable_for_vulnerable": false, "manager": "呂惠美", "phone": "02-22675698", "risk_level": "Low Risk", "risk_distance": 500 }, "geometry": { "type": "Point", "coordinates": [ 121.411937, 24.952776 ] } },
{ "type": "Feature", "properties": { "name": "新店國小", "address": "新北市新店區新店路2號", "longitude": 121.5402, "latitude": 24.9529, "capacity": 1795, "county": "新北市", "district": "新北市新店區", "village": "國校里", "disaster_types": "水災,震災,土石流", "indoor": true, "outdoor": true, "suitable_for_vulnerable": false, "manager": "吳英同", "phone": "02-29112281#1209", "risk_level": "Low Risk", "risk_distance": 500 }, "geometry": { "type": "Point", "coordinates": [ 121.5402, 24.9529 ] } },
{ "type": "Feature", "properties": { "name": "青潭國小", "address": "新北市新店區北宜路二段80號", "longitude": 121.5523, "latitude": 24.9531, "capacity": 203, "county": "新北市", "district": "新北市新店區", "village": "美潭里", "disaster_types": "水災,震災", "indoor": true, "outdoor": true, "suitable_for_vulnerable": false, "manager": "吳英同", "phone": "02-29112281#1209", "risk_level": "Low Risk", "risk_distance": 2000 }, "geometry": { "type": "Point", "coordinates": [ 121.5523, 24.9531 ] } },
{ "type": "Feature", "properties": { "name": "雲海國小", "address": "坑內1號", "longitude": 121.637, "latitude": 24.9533, "capacity": 299, "county": "新北市", "district": "坑內1", "village": "格頭里", "disaster_types": "水災,震災,土石流,海嘯", "indoor": true, "outdoor": true, "suitable_for_vulnerable": true, "manager": "鄭淳文/李沛瑩", "phone": "02-26651715#14/#16", "risk_level": "Medium Risk", "risk_distance": 1000 }, "geometry": { "type": "Point", "coordinates": [ 121.637, 24.9533 ] } },
{ "type": "Feature", "properties": { "name": "達觀國民中小學", "address": "僑信路1號", "longitude": 121.49998, "latitude": 24.95362, "capacity": 407, "county": "新北市", "district": "僑信路", "village": "德安里", "disaster_types": "水災,土石流", "indoor": true, "outdoor": true, "suitable_for_vulnerable": false, "manager": "吳英同", "phone": "02-29112281#1209", "risk_level": "Low Risk", "risk_distance": 0 }, "geometry": { "type": "Point", "coordinates": [ 121.49998, 24.95362 ] } },
{ "type": "Feature", "properties": { "name": "雙城活動中心", "address": "新北市新店區安康路3段2號5樓", "longitude": 121.4937, "latitude": 24.9538, "capacity": 132, "county": "新北市", "district": "新北市新店區", "village": "雙城里", "disaster_types": "水災,土石流", "indoor": true, "outdoor": false, "suitable_for_vulnerable": false, "manager": "吳英同", "phone": "02-29112281#1209", "risk_level": "High Risk", "risk_distance": 2000 }, "geometry": { "type": "Point", "coordinates": [ 121.4937, 24.9538 ] } },
{ "type": "Feature", "properties": { "name": "柑園國中", "address": "柑園街二段125號", "longitude": 121.384115, "latitude": 24.95474, "capacity": 1238, "county": "新北市", "district": "柑園街", "village": "柑園里", "disaster_types": "水災,震災,土石流", "indoor": true, "outdoor": true, "suitable_for_vulnerable": false, "manager": "事務組長林俐吟", "phone": "26801958轉205", "risk_level": "High Risk", "risk_distance": 1000 }, "geometry": { "type": "Point", "coordinates": [ 121.384115, 24.95474 ] } },
{ "type": "Feature", "properties": { "name": "建國國小", "address": "鶯歌區育英街2號", "longitude": 121.3461, "latitude": 24.955, "capacity": 376, "county": "新北市", "district": "鶯歌區", "village": "建國里", "disaster_types": "水災,震災,土石流,海嘯", "indoor": true, "outdoor": true, "suitable_for_vulnerable": true, "manager": "楊祚榮", "phone": "02-26780202", "risk_level": "High Risk", "risk_distance": 1000 }, "geometry": { "type": "Point", "coordinates": [ 121.3461, 24.955 ] } },
{ "type": "Feature", "properties": { "name": "樹梅嶺倉庫", "address": "樹梅嶺11號", "longitude": 121.696956, "latitude": 24.955382, "capacity": 10, "county": "新北市", "district": "樹梅嶺", "village": "上德里", "disaster_types": "水災,震災,土石流,海嘯", "indoor": true, "outdoor": false, "suitable_for_vulnerable": false, "manager": "徐瑄維", "phone": "02-26657251#240", "risk_level": "Medium Risk", "risk_distance": 0 }, "geometry": { "type": "Point", "coordinates": [ 121.696956, 24.955382 ] } },
{ "type": "Feature", "properties": { "name": "昌福國小", "address": "鶯歌區永明街22號", "longitude": 121.3392, "latitude": 24.9556, "capacity": 1391, "county": "新北市", "district": "鶯歌區", "village": "永昌里", "disaster_types": "水災,震災,土石流,海嘯", "indoor": true, "outdoor": true, "suitable_for_vulnerable": false, "manager": "楊祚榮", "phone": "02-26780202", "risk_level": "Medium Risk", "risk_distance": 0 }, "geometry": { "type": "Point", "coordinates": [ 121.3392, 24.9556 ] } },
{ "type": "Feature", "properties": { "name": "北鶯里活動中心", "address": "仁愛路55號", "longitude": 121.354434, "latitude": 24.955861, "capacity": 37, "county": "新北市", "district": "仁愛路", "village": "北鶯里", "disaster_types": "水災,震災,土石流,海嘯", "indoor": true, "outdoor": false, "suitable_for_vulnerable": true, "manager": "楊祚榮", "phone": "02-26780202", "risk_level": "High Risk", "risk_distance": 0 }, "geometry": { "type": "Point", "coordinates": [ 121.354434, 24.955861 ] } },
{ "type": "Feature", "properties": { "name": "頂埔國小", "address": "中央路4段205號", "longitude": 121.414403, "latitude": 24.95623, "capacity": 873, "county": "新北市", "district": "中央路", "village": "頂福里", "disaster_types": "水災,震災,土石流,海嘯", "indoor": true, "outdoor": true, "suitable_for_vulnerable": true, "manager": "劉志峰", "phone": "02-22686800-830", "risk_level": "Low Risk", "risk_distance": 500 }, "geometry": { "type": "Point", "coordinates": [ 121.414403, 24.95623 ] } },
{ "type": "Feature", "properties": { "name": "柑園國小", "address": "柑園街一段353號", "longitude": 121.389362, "latitude": 24.956328, "capacity": 467, "county": "新北市", "district": "柑園街", "village": "柑園里", "disaster_types": "震災,土石流,海嘯", "indoor": true, "outdoor": true, "suitable_for_vulnerable": false, "manager": "事務組長周憲昆", "phone": "26802507#232", "risk_level": "Medium Risk", "risk_distance": 0 }, "geometry": { "type": "Point", "coordinates": [ 121.389362, 24.956328 ] } },
{ "type": "Feature", "properties": { "name": "文山國中", "address": "新北市新店區文中路38號", "longitude": 121.5392, "latitude": 24.9567, "capacity": 703, "county": "新北市", "district": "新北市新店區", "village": "文中里", "disaster_types": "水災,震災,土石流", "indoor": true, "outdoor": true, "suitable_for_vulnerable": false, "manager": "吳英同", "phone": "02-29112281#1209", "risk_level": "High Risk", "risk_distance": 1000 }, "geometry": { "type": "Point", "coordinates": [ 121.5392, 24.9567 ] } },
{ "type": "Feature", "properties": { "name": "能仁家商", "address": "新北市新店區文中路53巷10號", "longitude": 121.5404, "latitude": 24.9569, "capacity": 1373, "county": "新北市", "district": "新北市新店區", "village": "文中里", "disaster_types": "水災,震災", "indoor": true, "outdoor": true, "suitable_for_vulnerable": false, "manager": "吳英同", "phone": "02-29112281#1209", "risk_level": "Medium Risk", "risk_distance": 0 }, "geometry": { "type": "Point", "coordinates": [ 121.5404, 24.9569 ] } },
{ "type": "Feature", "properties": { "name": "西鶯里活動中心", "address": "中正一路203號", "longitude": 121.3536, "latitude": 24.9572, "capacity": 207, "county": "新北市", "district": "中正一", "village": "西鶯里", "disaster_types": "水災,震災,土石流,海嘯", "indoor": true, "outdoor": false, "suitable_for_vulnerable": true, "manager": "楊祚榮", "phone": "02-26780202", "risk_level": "High Risk", "risk_distance": 1000 }, "geometry": { "type": "Point", "coordinates": [ 121.3536, 24.9572 ] } },
{ "type": "Feature", "properties": { "name": "文中廣明活動中心", "address": "新北市新店區北宜路一段39巷32號", "longitude": 121.5399, "latitude": 24.9577, "capacity": 45, "county": "新北市", "district": "新北市新店區", "village": "文中里", "disaster_types": "水災,土石流", "indoor": true, "outdoor": false, "suitable_for_vulnerable": false, "manager": "吳英同", "phone": "02-29112281#1209", "risk_level": "Low Risk", "risk_distance": 2000 }, "geometry": { "type": "Point", "coordinates": [ 121.5399, 24.9577 ] } },
{ "type": "Feature", "properties": { "name": "永吉國小", "address": "鶯歌區德昌二街2號", "longitude": 121.3329, "latitude": 24.9588, "capacity": 440, "county": "新北市", "district": "鶯歌區", "village": "永吉里", "disaster_types": "水災,震災,土石流,海嘯", "indoor": true, "outdoor": true, "suitable_for_vulnerable": true, "manager": "楊祚榮", "phone": "02-26780202", "risk_level": "High Risk", "risk_distance": 500 }, "geometry": { "type": "Point", "coordinates": [ 121.3329, 24.9588 ] } },
{ "type": "Feature", "properties": { "name": "頂埔市民活動中心", "address": "中央路4段55-12號", "longitude": 121.417311, "latitude": 24.958966, "capacity": 60, "county": "新北市", "district": "中央路", "village": "頂埔里", "disaster_types": "水災,震災,土石流,海嘯", "indoor": true, "outdoor": false, "suitable_for_vulnerable": true, "manager": "林忠謀", "phone": "02-22678936", "risk_level": "Low Risk", "risk_distance": 2000 }, "geometry": { "type": "Point", "coordinates": [ 121.417311, 24.958966 ] } },
{ "type": "Feature", "properties": { "name": "新北市坪林區坪林國小漁光校區", "address": "大舌湖35號", "longitude": 121.746242, "latitude": 24.959584, "capacity": 62, "county": "新北市", "district": "大舌湖", "village": "漁光里", "disaster_types": "水災,震災,土石流,海嘯", "indoor": true, "outdoor": true, "suitable_for_vulnerable": true, "manager": "吳志?", "phone": "02-26656213#13", "risk_level": "Low Risk", "risk_distance": 2000 }, "geometry": { "type": "Point", "coordinates": [ 121.746242, 24.959584 ] } },
{ "type": "Feature", "properties": { "name": "頂城市民活動中心", "address": "新北市新店區安康路一段9-1號", "longitude": 121.532147, "latitude": 24.960733, "capacity": 119, "county": "新北市", "district": "新北市新店區", "village": "頂城里", "disaster_types": "震災,土石流,海嘯", "indoor": true, "outdoor": false, "suitable_for_vulnerable": false, "manager": "吳英同", "phone": "29112281#1209", "risk_level": "High Risk", "risk_distance": 1000 }, "geometry": { "type": "Point", "coordinates": [ 121.532147, 24.960733 ] } },
{ "type": "Feature", "properties": { "name": "永寧市民活動中心", "address": "永寧路32巷10弄10號", "longitude": 121.42864, "latitude": 24.961098, "capacity": 30, "county": "新北市", "district": "永寧路", "village": "永寧里", "disaster_types": "水災,土石流,海嘯", "indoor": true, "outdoor": false, "suitable_for_vulnerable": true, "manager": "周清芳", "phone": "02-22696053", "risk_level": "High Risk", "risk_distance": 2000 }, "geometry": { "type": "Point", "coordinates": [ 121.42864, 24.961098 ] } },
{ "type": "Feature", "properties": { "name": "安坑國小", "address": "新北市新店區安忠路36號", "longitude": 121.5142, "latitude": 24.9613, "capacity": 901, "county": "新北市", "district": "新北市新店區", "village": "公崙里", "disaster_types": "水災,震災,土石流", "indoor": true, "outdoor": true, "suitable_for_vulnerable": false, "manager": "吳英同", "phone": "02-291122811#1209", "risk_level": "Low Risk", "risk_distance": 1000 }, "geometry": { "type": "Point", "coordinates": [ 121.5142, 24.9613 ] } },
{ "type": "Feature", "properties": { "name": "土城國中", "address": "永寧路18號", "longitude": 121.430192, "latitude": 24.962522, "capacity": 1384, "county": "新北市", "district": "永寧路", "village": "永寧里", "disaster_types": "水災,震災,土石流,海嘯", "indoor": true, "outdoor": false, "suitable_for_vulnerable": true, "manager": "劉明志", "phone": "02-22675135-401", "risk_level": "Low Risk", "risk_distance": 0 }, "geometry": { "type": "Point", "coordinates": [ 121.430192, 24.962522 ] } },
{ "type": "Feature", "properties": { "name": "沛陂市民活動中心", "address": "三民路23巷8弄9號", "longitude": 121.419474, "latitude": 24.963872, "capacity": 50, "county": "新北市", "district": "三民路", "village": "沛陂里", "disaster_types": "水災,震災,土石流", "indoor": true, "outdoor": false, "suitable_for_vulnerable": true, "manager": "林阿城", "phone": "02-22681535", "risk_level": "Low Risk", "risk_distance": 0 }, "geometry": { "type": "Point", "coordinates": [ 121.419474, 24.963872 ] } },
{ "type": "Feature", "properties": { "name": "及人高中", "address": "新北市新店區安興路1號", "longitude": 121.5149, "latitude": 24.9663, "capacity": 2774, "county": "新北市", "district": "新北市新店區", "village": "柴埕里", "disaster_types": "水災,震災,土石流", "indoor": true, "outdoor": true, "suitable_for_vulnerable": false, "manager": "吳英同", "phone": "02-291122811209", "risk_level": "Low Risk", "risk_distance": 1000 }, "geometry": { "type": "Point", "coordinates": [ 121.5149, 24.9663 ] } },
{ "type": "Feature", "properties": { "name": "五峰國中", "address": "新北市新店區中興路一段253號", "longitude": 121.544, "latitude": 24.9664, "capacity": 1103, "county": "新北市", "district": "新北市新店區", "village": "五?里", "disaster_types": "水災,震災,土石流", "indoor": true, "outdoor": true, "suitable_for_vulnerable": false, "manager": "吳英同", "phone": "02-29112281#1209", "risk_level": "High Risk", "risk_distance": 0 }, "geometry": { "type": "Point", "coordinates": [ 121.544, 24.9664 ] } },
{ "type": "Feature", "properties": { "name": "鳳鳴國中", "address": "鶯歌區永和街33號", "longitude": 121.3318, "latitude": 24.9671, "capacity": 527, "county": "新北市", "district": "鶯歌區", "village": "鳳鳴里", "disaster_types": "水災,震災,土石流,海嘯", "indoor": true, "outdoor": true, "suitable_for_vulnerable": false, "manager": "楊祚榮", "phone": "02-26780202", "risk_level": "Medium Risk", "risk_distance": 500 }, "geometry": { "type": "Point", "coordinates": [ 121.3318, 24.9671 ] } },
{ "type": "Feature", "properties": { "name": "安康高中", "address": "新北市新店區安興路25號", "longitude": 121.5149, "latitude": 24.9688, "capacity": 1119, "county": "新北市", "district": "新北市新店區", "village": "柴埕里", "disaster_types": "水災,震災,土石流", "indoor": true, "outdoor": true, "suitable_for_vulnerable": false, "manager": "吳英同", "phone": "02-29112281#1209", "risk_level": "High Risk", "risk_distance": 2000 }, "geometry": { "type": "Point", "coordinates": [ 121.5149, 24.9688 ] } },
{ "type": "Feature", "properties": { "name": "鳳鳴國小", "address": "鶯歌區永和街120號", "longitude": 121.3351, "latitude": 24.9691, "capacity": 342, "county": "新北市", "district": "鶯歌區", "village": "鳳鳴里", "disaster_types": "水災,震災,土石流,海嘯", "indoor": true, "outdoor": true, "suitable_for_vulnerable": true, "manager": "楊祚榮", "phone": "02-26780202", "risk_level": "Low Risk", "risk_distance": 500 }, "geometry": { "type": "Point", "coordinates": [ 121.3351, 24.9691 ] } },
{ "type": "Feature", "properties": { "name": "育德國小", "address": "佳園路一段34號", "longitude": 121.392558, "latitude": 24.971116, "capacity": 484, "county": "新北市", "district": "佳園路", "village": "中山里", "disaster_types": "震災,土石流,海嘯", "indoor": true, "outdoor": true, "suitable_for_vulnerable": false, "manager": "事務組長王心巧", "phone": "26805557#131", "risk_level": "Medium Risk", "risk_distance": 2000 }, "geometry": { "type": "Point", "coordinates": [ 121.392558, 24.971116 ] } },
{ "type": "Feature", "properties": { "name": "中正國小", "address": "新北市新店區三民路３６號", "longitude": 121.5366, "latitude": 24.9717, "capacity": 1001, "county": "新北市", "district": "新北市新店區", "village": "中正里", "disaster_types": "水災,震災,土石流", "indoor": true, "outdoor": true, "suitable_for_vulnerable": false, "manager": "吳英同", "phone": "02-29112281#1209", "risk_level": "Medium Risk", "risk_distance": 0 }, "geometry": { "type": "Point", "coordinates": [ 121.5366, 24.9717 ] } },
{ "type": "Feature", "properties": { "name": "崇光女中", "address": "新北市新店區三民路18號", "longitude": 121.5391, "latitude": 24.9718, "capacity": 522, "county": "新北市", "district": "新北市新店區", "village": "中正里", "disaster_types": "水災,震災,土石流", "indoor": true, "outdoor": true, "suitable_for_vulnerable": false, "manager": "吳英同", "phone": "02-29112281#1209", "risk_level": "High Risk", "risk_distance": 500 }, "geometry": { "type": "Point", "coordinates": [ 121.5391, 24.9718 ] } },
{ "type": "Feature", "properties": { "name": "土城國小", "address": "興城路17號", "longitude": 121.441935, "latitude": 24.972383, "capacity": 958, "county": "新北市", "district": "興城路", "village": "埤塘里", "disaster_types": "水災,震災,土石流,海嘯", "indoor": true, "outdoor": true, "suitable_for_vulnerable": true, "manager": "趙麗玲", "phone": "02-22700177-851", "risk_level": "Medium Risk", "risk_distance": 0 }, "geometry": { "type": "Point", "coordinates": [ 121.441935, 24.972383 ] } },
{ "type": "Feature", "properties": { "name": "土城區公所", "address": "金城路1段101號7樓", "longitude": 121.442873, "latitude": 24.972533, "capacity": 162, "county": "新北市", "district": "金城路", "village": "埤塘里", "disaster_types": "水災,土石流,海嘯", "indoor": true, "outdoor": true, "suitable_for_vulnerable": true, "manager": "楊麗涵", "phone": "02-22732000-543", "risk_level": "Medium Risk", "risk_distance": 2000 }, "geometry": { "type": "Point", "coordinates": [ 121.442873, 24.972533 ] } },
{ "type": "Feature", "properties": { "name": "泰平里活動中心", "address": "溪尾寮46號", "longitude": 121.827, "latitude": 24.9727, "capacity": 100, "county": "新北市", "district": "溪尾寮", "village": "泰平里", "disaster_types": "水災,震災,土石流", "indoor": true, "outdoor": false, "suitable_for_vulnerable": false, "manager": "宋翔怡", "phone": "02-24931111#124", "risk_level": "Low Risk", "risk_distance": 1000 }, "geometry": { "type": "Point", "coordinates": [ 121.827, 24.9727 ] } },
{ "type": "Feature", "properties": { "name": "山佳市民活動中心", "address": "中山路三段40號2樓", "longitude": 121.39436, "latitude": 24.972721, "capacity": 80, "county": "新北市", "district": "中山路", "village": "中山里", "disaster_types": "水災,震災,土石流,海嘯", "indoor": true, "outdoor": false, "suitable_for_vulnerable": false, "manager": "游文瑩", "phone": "02-26812106#1615", "risk_level": "Medium Risk", "risk_distance": 1000 }, "geometry": { "type": "Point", "coordinates": [ 121.39436, 24.972721 ] } },
{ "type": "Feature", "properties": { "name": "中湖里活動中心", "address": "中湖街25號", "longitude": 121.3481, "latitude": 24.973, "capacity": 119, "county": "新北市", "district": "中湖街", "village": "中湖里", "disaster_types": "水災,震災,土石流,海嘯", "indoor": true, "outdoor": false, "suitable_for_vulnerable": false, "manager": "楊祚榮", "phone": "02-26780202", "risk_level": "Low Risk", "risk_distance": 500 }, "geometry": { "type": "Point", "coordinates": [ 121.3481, 24.973 ] } },
{ "type": "Feature", "properties": { "name": "中湖國小", "address": "中湖街25號", "longitude": 121.3481, "latitude": 24.973, "capacity": 465, "county": "新北市", "district": "中湖街", "village": "中湖里", "disaster_types": "水災,震災,土石流,海嘯", "indoor": true, "outdoor": true, "suitable_for_vulnerable": false, "manager": "楊祚榮", "phone": "02-26780202", "risk_level": "Medium Risk", "risk_distance": 0 }, "geometry": { "type": "Point", "coordinates": [ 121.3481, 24.973 ] } },
{ "type": "Feature", "properties": { "name": "北新國小　", "address": "新北市新店區寶橋路8號", "longitude": 121.5439, "latitude": 24.9737, "capacity": 1737, "county": "新北市", "district": "新北市新店區", "village": "新安里", "disaster_types": "水災,震災,土石流", "indoor": true, "outdoor": true, "suitable_for_vulnerable": false, "manager": "吳英同", "phone": "02-29112281#1209", "risk_level": "High Risk", "risk_distance": 0 }, "geometry": { "type": "Point", "coordinates": [ 121.5439, 24.9737 ] } },
{ "type": "Feature", "properties": { "name": "清化市民活動中心", "address": "青雲路368號4樓", "longitude": 121.458661, "latitude": 24.973802, "capacity": 30, "county": "新北市", "district": "青雲路", "village": "清和里", "disaster_types": "水災,土石流", "indoor": true, "outdoor": false, "suitable_for_vulnerable": false, "manager": "袁慧如", "phone": "02-22615380", "risk_level": "Low Risk", "risk_distance": 500 }, "geometry": { "type": "Point", "coordinates": [ 121.458661, 24.973802 ] } },
{ "type": "Feature", "properties": { "name": "清和市民活動中心", "address": "青雲路368號1樓", "longitude": 121.458661, "latitude": 24.973802, "capacity": 30, "county": "新北市", "district": "青雲路", "village": "清和里", "disaster_types": "水災,震災,土石流", "indoor": true, "outdoor": false, "suitable_for_vulnerable": true, "manager": "張源寶", "phone": "02-22745669", "risk_level": "Low Risk", "risk_distance": 1000 }, "geometry": { "type": "Point", "coordinates": [ 121.458661, 24.973802 ] } },
{ "type": "Feature", "properties": { "name": "樂山市民活動中心", "address": "中和街38號3樓", "longitude": 121.389871, "latitude": 24.973944, "capacity": 61, "county": "新北市", "district": "中和街", "village": "樂山里", "disaster_types": "水災,震災,土石流", "indoor": true, "outdoor": false, "suitable_for_vulnerable": false, "manager": "江翊榕", "phone": "26812106#1617", "risk_level": "Medium Risk", "risk_distance": 2000 }, "geometry": { "type": "Point", "coordinates": [ 121.389871, 24.973944 ] } },
{ "type": "Feature", "properties": { "name": "新店高中", "address": "新北市新店區中央路93號", "longitude": 121.5318, "latitude": 24.9756, "capacity": 1307, "county": "新北市", "district": "新北市新店區", "village": "福民里", "disaster_types": "水災,震災,土石流", "indoor": true, "outdoor": true, "suitable_for_vulnerable": false, "manager": "吳英同", "phone": "02-29112281#1209", "risk_level": "Low Risk", "risk_distance": 500 }, "geometry": { "type": "Point", "coordinates": [ 121.5318, 24.9756 ] } },
{ "type": "Feature", "properties": { "name": "山佳國小", "address": "中山路三段5號", "longitude": 121.401678, "latitude": 24.975774, "capacity": 654, "county": "新北市", "district": "中山路", "village": "山佳里", "disaster_types": "水災,震災,土石流,海嘯", "indoor": true, "outdoor": true, "suitable_for_vulnerable": false, "manager": "事務組長林清輝", "phone": "26806673轉831", "risk_level": "Medium Risk", "risk_distance": 2000 }, "geometry": { "type": "Point", "coordinates": [ 121.401678, 24.975774 ] } },
{ "type": "Feature", "properties": { "name": "耕莘健康管理專科學校", "address": "新北市新店區民族路112號", "longitude": 121.5355, "latitude": 24.9761, "capacity": 87, "county": "新北市", "district": "新北市新店區", "village": "百和里", "disaster_types": "水災,震災,土石流", "indoor": true, "outdoor": true, "suitable_for_vulnerable": false, "manager": "吳英同", "phone": "02-29112281#1209", "risk_level": "Medium Risk", "risk_distance": 1000 }, "geometry": { "type": "Point", "coordinates": [ 121.5355, 24.9761 ] } },
{ "type": "Feature", "properties": { "name": "指南國小", "address": "文山區指南路3段38巷5-2號", "longitude": 121.5836, "latitude": 24.9764, "capacity": 20, "county": "臺北市", "district": "文山區", "village": null, "disaster_types": "水災,震災", "indoor": true, "outdoor": false, "suitable_for_vulnerable": false, "manager": "張心怡", "phone": "02-29393546#21", "risk_level": "Medium Risk", "risk_distance": 0 }, "geometry": { "type": "Point", "coordinates": [ 121.5836, 24.9764 ] } },
{ "type": "Feature", "properties": { "name": "大豐社福館", "address": "新北市新店區民族路110號", "longitude": 121.5376, "latitude": 24.9769, "capacity": 1540, "county": "新北市", "district": "新北市新店區", "village": "大豐里", "disaster_types": "水災,震災,土石流", "indoor": true, "outdoor": false, "suitable_for_vulnerable": false, "manager": "吳英同", "phone": "02-29112281#1209", "risk_level": "High Risk", "risk_distance": 1000 }, "geometry": { "type": "Point", "coordinates": [ 121.5376, 24.9769 ] } },
{ "type": "Feature", "properties": { "name": "大豐國小", "address": "新北市新店區23143民族路108號", "longitude": 121.5382, "latitude": 24.9776, "capacity": 5794, "county": "新北市", "district": "新北市新店區", "village": "大豐里", "disaster_types": "水災,震災,土石流", "indoor": true, "outdoor": true, "suitable_for_vulnerable": false, "manager": "吳英同", "phone": "02-29112281#1209", "risk_level": "High Risk", "risk_distance": 500 }, "geometry": { "type": "Point", "coordinates": [ 121.5382, 24.9776 ] } },
{ "type": "Feature", "properties": { "name": "員林市民活動中心", "address": "員林街15號1樓", "longitude": 121.442984, "latitude": 24.978282, "capacity": 77, "county": "新北市", "district": "員林街", "village": "員林里", "disaster_types": "水災,震災,土石流", "indoor": true, "outdoor": false, "suitable_for_vulnerable": false, "manager": "蔡黃地", "phone": "02-22610593", "risk_level": "High Risk", "risk_distance": 0 }, "geometry": { "type": "Point", "coordinates": [ 121.442984, 24.978282 ] } },
{ "type": "Feature", "properties": { "name": "竹林中學", "address": "中和區華新街143巷12號", "longitude": 121.506, "latitude": 24.9799, "capacity": 430, "county": "新北市", "district": "中和區", "village": "華新里", "disaster_types": "水災,震災,土石流,海嘯", "indoor": true, "outdoor": true, "suitable_for_vulnerable": true, "manager": "劉師政", "phone": "02-22482688#286", "risk_level": "Medium Risk", "risk_distance": 500 }, "geometry": { "type": "Point", "coordinates": [ 121.506, 24.9799 ] } },
{ "type": "Feature", "properties": { "name": "開明工商", "address": "新北市新店區寶中路49號", "longitude": 121.5462, "latitude": 24.98, "capacity": 1945, "county": "新北市", "district": "新北市新店區", "village": "寶福里", "disaster_types": "水災,震災,土石流", "indoor": true, "outdoor": true, "suitable_for_vulnerable": false, "manager": "吳英同", "phone": "02-29112281#1209", "risk_level": "Medium Risk", "risk_distance": 500 }, "geometry": { "type": "Point", "coordinates": [ 121.5462, 24.98 ] } },
{ "type": "Feature", "properties": { "name": "華梵大學于藝館3樓", "address": "華梵路1號", "longitude": 121.6921, "latitude": 24.98, "capacity": 100, "county": "新北市", "district": "華梵路", "village": "豐田里", "disaster_types": "水災,震災,土石流,海嘯", "indoor": true, "outdoor": true, "suitable_for_vulnerable": true, "manager": "陳靜瑤/楊朝欽", "phone": "02-26632102#2422/#2462", "risk_level": "Medium Risk", "risk_distance": 1000 }, "geometry": { "type": "Point", "coordinates": [ 121.6921, 24.98 ] } },
{ "type": "Feature", "properties": { "name": "青山市民活動中心", "address": "明德路1段74-1號1樓", "longitude": 121.464447, "latitude": 24.98031, "capacity": 18, "county": "新北市", "district": "明德路", "village": "青山里", "disaster_types": "水災,震災,土石流", "indoor": true, "outdoor": false, "suitable_for_vulnerable": true, "manager": "姚韋華", "phone": "02-22734192", "risk_level": "Low Risk", "risk_distance": 500 }, "geometry": { "type": "Point", "coordinates": [ 121.464447, 24.98031 ] } },
{ "type": "Feature", "properties": { "name": "永富市民活動中心", "address": "明德路1段74-1號2樓", "longitude": 121.464447, "latitude": 24.98031, "capacity": 25, "county": "新北市", "district": "明德路", "village": "青山里", "disaster_types": "水災,土石流", "indoor": true, "outdoor": false, "suitable_for_vulnerable": false, "manager": "黃思儀", "phone": "02-22644813", "risk_level": "High Risk", "risk_distance": 1000 }, "geometry": { "type": "Point", "coordinates": [ 121.464447, 24.98031 ] } },
{ "type": "Feature", "properties": { "name": "景美女中", "address": "文山區木新路3段312號", "longitude": 121.5562, "latitude": 24.9807, "capacity": 300, "county": "臺北市", "district": "文山區", "village": null, "disaster_types": "水災,震災", "indoor": true, "outdoor": false, "suitable_for_vulnerable": false, "manager": "林宜德", "phone": "02-29368847#201", "risk_level": "Medium Risk", "risk_distance": 0 }, "geometry": { "type": "Point", "coordinates": [ 121.5562, 24.9807 ] } },
{ "type": "Feature", "properties": { "name": "廷寮市民活動中心", "address": "永豐路240-1號", "longitude": 121.467199, "latitude": 24.980803, "capacity": 80, "county": "新北市", "district": "永豐路", "village": "廷寮里", "disaster_types": "水災,震災,土石流,海嘯", "indoor": true, "outdoor": false, "suitable_for_vulnerable": true, "manager": "洪焜猛", "phone": "02-22626089", "risk_level": "Low Risk", "risk_distance": 1000 }, "geometry": { "type": "Point", "coordinates": [ 121.467199, 24.980803 ] } },
{ "type": "Feature", "properties": { "name": "南強工商", "address": "新北市新店區文化路42號", "longitude": 121.5448, "latitude": 24.9809, "capacity": 1132, "county": "新北市", "district": "新北市新店區", "village": "寶興里", "disaster_types": "水災,震災,土石流,海嘯", "indoor": true, "outdoor": true, "suitable_for_vulnerable": false, "manager": "吳英同", "phone": "02-29112281#1209", "risk_level": "High Risk", "risk_distance": 0 }, "geometry": { "type": "Point", "coordinates": [ 121.5448, 24.9809 ] } },
{ "type": "Feature", "properties": { "name": "力行國小", "address": "文山區木新路3段155巷7號", "longitude": 121.561, "latitude": 24.9809, "capacity": 30, "county": "臺北市", "district": "文山區", "village": null, "disaster_types": "水災,震災", "indoor": true, "outdoor": false, "suitable_for_vulnerable": true, "manager": "吳阿理", "phone": "02-29363995#821", "risk_level": "High Risk", "risk_distance": 1000 }, "geometry": { "type": "Point", "coordinates": [ 121.561, 24.9809 ] } },
{ "type": "Feature", "properties": { "name": "大同國小", "address": "大同街43號", "longitude": 121.417421, "latitude": 24.981493, "capacity": 450, "county": "新北市", "district": "大同街", "village": "大同里", "disaster_types": "水災,震災,土石流,海嘯", "indoor": true, "outdoor": true, "suitable_for_vulnerable": false, "manager": "事務組長沈炳育", "phone": "86865486轉842", "risk_level": "High Risk", "risk_distance": 2000 }, "geometry": { "type": "Point", "coordinates": [ 121.417421, 24.981493 ] } },
{ "type": "Feature", "properties": { "name": "東陽市民活動中心", "address": "鎮前街467號", "longitude": 121.410902, "latitude": 24.981593, "capacity": 78, "county": "新北市", "district": "鎮前街", "village": "樹東里", "disaster_types": "震災,土石流,海嘯", "indoor": true, "outdoor": false, "suitable_for_vulnerable": false, "manager": "何錦綢", "phone": "02-26812106#1614", "risk_level": "High Risk", "risk_distance": 2000 }, "geometry": { "type": "Point", "coordinates": [ 121.410902, 24.981593 ] } },
{ "type": "Feature", "properties": { "name": "彭福國小", "address": "忠孝街30號", "longitude": 121.42394, "latitude": 24.981755, "capacity": 1704, "county": "新北市", "district": "忠孝街", "village": "和平里", "disaster_types": "水災,震災,土石流,海嘯", "indoor": true, "outdoor": true, "suitable_for_vulnerable": false, "manager": "事務祖長王鴻萍", "phone": "86866589#803", "risk_level": "Low Risk", "risk_distance": 500 }, "geometry": { "type": "Point", "coordinates": [ 121.42394, 24.981755 ] } },
{ "type": "Feature", "properties": { "name": "清水高中", "address": "明德路1段72號", "longitude": 121.465311, "latitude": 24.982013, "capacity": 1033, "county": "新北市", "district": "明德路", "village": "永富里", "disaster_types": "水災,震災,土石流,海嘯", "indoor": true, "outdoor": true, "suitable_for_vulnerable": true, "manager": "林呈隆", "phone": "02-22707801-400", "risk_level": "Low Risk", "risk_distance": 1000 }, "geometry": { "type": "Point", "coordinates": [ 121.465311, 24.982013 ] } },
{ "type": "Feature", "properties": { "name": "華夏科技大學", "address": "中和區工專路111號", "longitude": 121.5076, "latitude": 24.9822, "capacity": 1447, "county": "新北市", "district": "中和區", "village": "華新里", "disaster_types": "水災,震災,土石流,海嘯", "indoor": true, "outdoor": true, "suitable_for_vulnerable": true, "manager": "劉師政", "phone": "02-22482688＃286", "risk_level": "Medium Risk", "risk_distance": 1000 }, "geometry": { "type": "Point", "coordinates": [ 121.5076, 24.9822 ] } },
{ "type": "Feature", "properties": { "name": "青雲,柑林市民活動中心", "address": "清水路141巷18號B1", "longitude": 121.458501, "latitude": 24.98237, "capacity": 50, "county": "新北市", "district": "清水路", "village": "青雲里", "disaster_types": "土石流", "indoor": true, "outdoor": false, "suitable_for_vulnerable": false, "manager": "廖特青 張育誠", "phone": "02-22659858 02-22736647", "risk_level": "Low Risk", "risk_distance": 0 }, "geometry": { "type": "Point", "coordinates": [ 121.458501, 24.98237 ] } },
{ "type": "Feature", "properties": { "name": "裕德高中", "address": "擺接堡路1號", "longitude": 121.439585, "latitude": 24.982977, "capacity": 975, "county": "新北市", "district": "擺接堡", "village": "日和里", "disaster_types": "水災,震災,土石流,海嘯", "indoor": true, "outdoor": true, "suitable_for_vulnerable": true, "manager": "簡嘉良", "phone": "02-82617889-225", "risk_level": "Low Risk", "risk_distance": 500 }, "geometry": { "type": "Point", "coordinates": [ 121.439585, 24.982977 ] } },
{ "type": "Feature", "properties": { "name": "新北高工", "address": "學府路1段241號", "longitude": 121.45038, "latitude": 24.983308, "capacity": 2785, "county": "新北市", "district": "學府路", "village": "學府里", "disaster_types": "水災,震災,土石流,海嘯", "indoor": true, "outdoor": true, "suitable_for_vulnerable": true, "manager": "洪儒", "phone": "02-22612483-30", "risk_level": "High Risk", "risk_distance": 1000 }, "geometry": { "type": "Point", "coordinates": [ 121.45038, 24.983308 ] } },
{ "type": "Feature", "properties": { "name": "實踐國中", "address": "文山區辛亥路7段67號", "longitude": 121.5547, "latitude": 24.9834, "capacity": 300, "county": "臺北市", "district": "文山區", "village": null, "disaster_types": "水災,震災", "indoor": true, "outdoor": false, "suitable_for_vulnerable": false, "manager": "吳佳晉", "phone": "02-22362852#150", "risk_level": "Low Risk", "risk_distance": 500 }, "geometry": { "type": "Point", "coordinates": [ 121.5547, 24.9834 ] } },
{ "type": "Feature", "properties": { "name": "中正國中", "address": "金城路2段247號", "longitude": 121.456842, "latitude": 24.983456, "capacity": 415, "county": "新北市", "district": "金城路", "village": "青雲里", "disaster_types": "水災,震災,土石流,海嘯", "indoor": true, "outdoor": true, "suitable_for_vulnerable": true, "manager": "林碧文", "phone": "02-22628456-815", "risk_level": "Medium Risk", "risk_distance": 2000 }, "geometry": { "type": "Point", "coordinates": [ 121.456842, 24.983456 ] } },
{ "type": "Feature", "properties": { "name": "樹林高級中學", "address": "中華路8號", "longitude": 121.422804, "latitude": 24.983502, "capacity": 1404, "county": "新北市", "district": "中華路", "village": "和平里", "disaster_types": "震災,土石流,海嘯", "indoor": true, "outdoor": true, "suitable_for_vulnerable": false, "manager": "總務主任林浩吉", "phone": "86852011#2112", "risk_level": "Low Risk", "risk_distance": 1000 }, "geometry": { "type": "Point", "coordinates": [ 121.422804, 24.983502 ] } },
{ "type": "Feature", "properties": { "name": "實踐國小", "address": "文山區忠順街1段4號", "longitude": 121.5575, "latitude": 24.9836, "capacity": 75, "county": "臺北市", "district": "文山區", "village": null, "disaster_types": "水災,震災", "indoor": true, "outdoor": false, "suitable_for_vulnerable": false, "manager": "蔡宗儒", "phone": "02-29360725#140", "risk_level": "Low Risk", "risk_distance": 1000 }, "geometry": { "type": "Point", "coordinates": [ 121.5575, 24.9836 ] } },
{ "type": "Feature", "properties": { "name": "東昇市民活動中心", "address": "中山路二段80號2樓", "longitude": 121.415159, "latitude": 24.984222, "capacity": 214, "county": "新北市", "district": "中山路", "village": "東昇里", "disaster_types": "水災,震災,土石流,海嘯", "indoor": true, "outdoor": false, "suitable_for_vulnerable": false, "manager": "陳雅晴", "phone": "02-268121061613", "risk_level": "Medium Risk", "risk_distance": 500 }, "geometry": { "type": "Point", "coordinates": [ 121.415159, 24.984222 ] } },
{ "type": "Feature", "properties": { "name": "清水國小", "address": "金城路2段356號", "longitude": 121.461508, "latitude": 24.984402, "capacity": 597, "county": "新北市", "district": "金城路", "village": "清溪里", "disaster_types": "水災,震災,土石流,海嘯", "indoor": true, "outdoor": true, "suitable_for_vulnerable": true, "manager": "劉員池", "phone": "02-22618316-401", "risk_level": "High Risk", "risk_distance": 1000 }, "geometry": { "type": "Point", "coordinates": [ 121.461508, 24.984402 ] } },
{ "type": "Feature", "properties": { "name": "新和國小", "address": "新店市安和路三段100號", "longitude": 121.5182, "latitude": 24.9846, "capacity": 648, "county": "新北市", "district": "新店市", "village": "永安里", "disaster_types": "水災,震災,土石流", "indoor": true, "outdoor": true, "suitable_for_vulnerable": false, "manager": "吳英同", "phone": "02-29112281#1209", "risk_level": "High Risk", "risk_distance": 500 }, "geometry": { "type": "Point", "coordinates": [ 121.5182, 24.9846 ] } },
{ "type": "Feature", "properties": { "name": "北政國中", "address": "臺北市文山區指南路3段2巷14號", "longitude": 121.5783, "latitude": 24.9849, "capacity": 20, "county": "臺北市", "district": "臺北市文山區", "village": null, "disaster_types": "水災,震災", "indoor": true, "outdoor": false, "suitable_for_vulnerable": false, "manager": "陳友城", "phone": "29393651#51", "risk_level": "Medium Risk", "risk_distance": 1000 }, "geometry": { "type": "Point", "coordinates": [ 121.5783, 24.9849 ] } },
{ "type": "Feature", "properties": { "name": "樂利國小", "address": "裕生路65號", "longitude": 121.447559, "latitude": 24.985602, "capacity": 1168, "county": "新北市", "district": "裕生路", "village": "日新里", "disaster_types": "水災,震災,土石流,海嘯", "indoor": true, "outdoor": true, "suitable_for_vulnerable": true, "manager": "李明憲", "phone": "02-22662568-831", "risk_level": "Low Risk", "risk_distance": 0 }, "geometry": { "type": "Point", "coordinates": [ 121.447559, 24.985602 ] } },
{ "type": "Feature", "properties": { "name": "莊敬工家", "address": "新北市新店區民生路45號", "longitude": 121.5322, "latitude": 24.9858, "capacity": 8362, "county": "新北市", "district": "新北市新店區", "village": "復興里", "disaster_types": "水災,震災,土石流", "indoor": true, "outdoor": false, "suitable_for_vulnerable": false, "manager": "吳英同", "phone": "02-29112281#1209", "risk_level": "Low Risk", "risk_distance": 500 }, "geometry": { "type": "Point", "coordinates": [ 121.5322, 24.9858 ] } },
{ "type": "Feature", "properties": { "name": "廣興市民活動中心", "address": "學府路一段99巷底2樓", "longitude": 121.457766, "latitude": 24.985909, "capacity": 50, "county": "新北市", "district": "學府路", "village": "廣福里", "disaster_types": "水災,土石流", "indoor": true, "outdoor": false, "suitable_for_vulnerable": false, "manager": "張淑玲", "phone": "02-22625088", "risk_level": "High Risk", "risk_distance": 1000 }, "geometry": { "type": "Point", "coordinates": [ 121.457766, 24.985909 ] } },
{ "type": "Feature", "properties": { "name": "廣福市民活動中心", "address": "學府路一段99巷底1樓", "longitude": 121.457766, "latitude": 24.985909, "capacity": 50, "county": "新北市", "district": "學府路", "village": "廣福里", "disaster_types": "水災,震災,土石流", "indoor": true, "outdoor": false, "suitable_for_vulnerable": true, "manager": "丁科秀", "phone": "02-22629394", "risk_level": "Medium Risk", "risk_distance": 2000 }, "geometry": { "type": "Point", "coordinates": [ 121.457766, 24.985909 ] } },
{ "type": "Feature", "properties": { "name": "育林國小", "address": "復興路395號", "longitude": 121.415677, "latitude": 24.986051, "capacity": 135, "county": "新北市", "district": "復興路", "village": "樹南里", "disaster_types": "水災,震災,土石流,海嘯", "indoor": true, "outdoor": true, "suitable_for_vulnerable": false, "manager": "事務組長 杜炳倫", "phone": "26832112#303", "risk_level": "Medium Risk", "risk_distance": 1000 }, "geometry": { "type": "Point", "coordinates": [ 121.415677, 24.986051 ] } },
{ "type": "Feature", "properties": { "name": "育林國中", "address": "復興路395號", "longitude": 121.415677, "latitude": 24.986051, "capacity": 574, "county": "新北市", "district": "復興路", "village": "樹南里", "disaster_types": "水災,震災,土石流,海嘯", "indoor": true, "outdoor": true, "suitable_for_vulnerable": false, "manager": "事務組長潘怡娟", "phone": "26841160#122", "risk_level": "High Risk", "risk_distance": 2000 }, "geometry": { "type": "Point", "coordinates": [ 121.415677, 24.986051 ] } },
{ "type": "Feature", "properties": { "name": "中和國中", "address": "中和區興南路2段3巷17號", "longitude": 121.5085, "latitude": 24.9862, "capacity": 2649, "county": "新北市", "district": "中和區", "village": "忠孝里", "disaster_types": "水災,震災,土石流,海嘯", "indoor": true, "outdoor": true, "suitable_for_vulnerable": true, "manager": "劉師政", "phone": "02-22482688＃286", "risk_level": "High Risk", "risk_distance": 2000 }, "geometry": { "type": "Point", "coordinates": [ 121.5085, 24.9862 ] } },
{ "type": "Feature", "properties": { "name": "興南國小", "address": "中和區興南路1段135巷24號", "longitude": 121.5091, "latitude": 24.9867, "capacity": 1278, "county": "新北市", "district": "中和區", "village": "忠孝里", "disaster_types": "水災,震災,土石流,海嘯", "indoor": true, "outdoor": true, "suitable_for_vulnerable": true, "manager": "劉師政", "phone": "02-22482688#286", "risk_level": "Medium Risk", "risk_distance": 0 }, "geometry": { "type": "Point", "coordinates": [ 121.5091, 24.9867 ] } },
{ "type": "Feature", "properties": { "name": "廣福國小", "address": "學府路1段127號", "longitude": 121.454896, "latitude": 24.986953, "capacity": 608, "county": "新北市", "district": "學府路", "village": "廣福里", "disaster_types": "水災,震災,土石流,海嘯", "indoor": true, "outdoor": true, "suitable_for_vulnerable": true, "manager": "施杰翰", "phone": "02-22626782-100", "risk_level": "Low Risk", "risk_distance": 500 }, "geometry": { "type": "Point", "coordinates": [ 121.454896, 24.986953 ] } },
{ "type": "Feature", "properties": { "name": "溪洲國小", "address": "金門街289號", "longitude": 121.4309, "latitude": 24.9873, "capacity": 1021, "county": "新北市", "district": "金門街", "village": "堂春里", "disaster_types": "震災,土石流,海嘯", "indoor": true, "outdoor": true, "suitable_for_vulnerable": false, "manager": "謝瀚頡組長", "phone": "2686770551", "risk_level": "Medium Risk", "risk_distance": 1000 }, "geometry": { "type": "Point", "coordinates": [ 121.4309, 24.9873 ] } },
{ "type": "Feature", "properties": { "name": "明道國小", "address": "文山區木柵路2段138巷61號", "longitude": 121.5626, "latitude": 24.9874, "capacity": 42, "county": "臺北市", "district": "文山區", "village": "明義里", "disaster_types": "水災,震災", "indoor": true, "outdoor": false, "suitable_for_vulnerable": false, "manager": "莊文玲", "phone": "02-29392821#14", "risk_level": "Medium Risk", "risk_distance": 0 }, "geometry": { "type": "Point", "coordinates": [ 121.5626, 24.9874 ] } },
{ "type": "Feature", "properties": { "name": "木柵國中", "address": "文山區木柵路3段102巷12號", "longitude": 121.5677, "latitude": 24.9875, "capacity": 30, "county": "臺北市", "district": "文山區", "village": null, "disaster_types": "水災,震災", "indoor": true, "outdoor": false, "suitable_for_vulnerable": true, "manager": "余鎮遠", "phone": "02-29393031#600", "risk_level": "Low Risk", "risk_distance": 1000 }, "geometry": { "type": "Point", "coordinates": [ 121.5677, 24.9875 ] } },
{ "type": "Feature", "properties": { "name": "永建國小", "address": "文山區試院路2號", "longitude": 121.55, "latitude": 24.9876, "capacity": 30, "county": "臺北市", "district": "文山區", "village": null, "disaster_types": "水災,震災", "indoor": true, "outdoor": false, "suitable_for_vulnerable": true, "manager": "陳佳雯", "phone": "02-22363855#125", "risk_level": "Medium Risk", "risk_distance": 2000 }, "geometry": { "type": "Point", "coordinates": [ 121.55, 24.9876 ] } },
{ "type": "Feature", "properties": { "name": "安和國小", "address": "延和路23號", "longitude": 121.464774, "latitude": 24.988807, "capacity": 2293, "county": "新北市", "district": "延和路", "village": "安和里", "disaster_types": "水災,震災,土石流,海嘯", "indoor": true, "outdoor": true, "suitable_for_vulnerable": true, "manager": "黃富聰", "phone": "02-22603451-131", "risk_level": "Low Risk", "risk_distance": 500 }, "geometry": { "type": "Point", "coordinates": [ 121.464774, 24.988807 ] } },
{ "type": "Feature", "properties": { "name": "景新國小", "address": "中和區景新街467巷37號", "longitude": 121.515, "latitude": 24.9893, "capacity": 897, "county": "新北市", "district": "中和區", "village": "景南里", "disaster_types": "水災,震災,土石流,海嘯", "indoor": true, "outdoor": true, "suitable_for_vulnerable": true, "manager": "劉師政", "phone": "02-22482688＃286", "risk_level": "Low Risk", "risk_distance": 1000 }, "geometry": { "type": "Point", "coordinates": [ 121.515, 24.9893 ] } },
{ "type": "Feature", "properties": { "name": "景美國小", "address": "文山區景文街108號", "longitude": 121.5408, "latitude": 24.9895, "capacity": 74, "county": "臺北市", "district": "文山區", "village": null, "disaster_types": "水災,震災", "indoor": true, "outdoor": false, "suitable_for_vulnerable": true, "manager": "莊琬婷", "phone": "02-29322151#130", "risk_level": "High Risk", "risk_distance": 1000 }, "geometry": { "type": "Point", "coordinates": [ 121.5408, 24.9895 ] } },
{ "type": "Feature", "properties": { "name": "復興國小", "address": "中和區復興路301巷6號", "longitude": 121.5019, "latitude": 24.9896, "capacity": 946, "county": "新北市", "district": "中和區", "village": "中興里", "disaster_types": "水災,土石流,海嘯", "indoor": true, "outdoor": true, "suitable_for_vulnerable": false, "manager": "劉師政", "phone": "02-22482688＃286", "risk_level": "Medium Risk", "risk_distance": 2000 }, "geometry": { "type": "Point", "coordinates": [ 121.5019, 24.9896 ] } },
{ "type": "Feature", "properties": { "name": "行政中心大禮堂", "address": "臺北市木柵路3段220號10樓", "longitude": 121.5701, "latitude": 24.9896, "capacity": 60, "county": "臺北市", "district": "臺北市", "village": null, "disaster_types": "水災,震災", "indoor": true, "outdoor": false, "suitable_for_vulnerable": false, "manager": "周如倩", "phone": "29365522#324", "risk_level": "Medium Risk", "risk_distance": 1000 }, "geometry": { "type": "Point", "coordinates": [ 121.5701, 24.9896 ] } },
{ "type": "Feature", "properties": { "name": "沙崙國小", "address": "篤行路二段132號", "longitude": 121.4305, "latitude": 24.9897, "capacity": 1692, "county": "新北市", "district": "篤行路", "village": "溪北里", "disaster_types": "震災", "indoor": true, "outdoor": true, "suitable_for_vulnerable": false, "manager": "王亭雅組長", "phone": "26812764832", "risk_level": "High Risk", "risk_distance": 1000 }, "geometry": { "type": "Point", "coordinates": [ 121.4305, 24.9897 ] } },
{ "type": "Feature", "properties": { "name": "復興大樓圖書館", "address": "南山路236號6樓", "longitude": 121.5065, "latitude": 24.9897, "capacity": 25, "county": "新北市", "district": "南山路", "village": "外南里", "disaster_types": "水災,震災,土石流,海嘯", "indoor": true, "outdoor": false, "suitable_for_vulnerable": true, "manager": "劉師政", "phone": "02-22482688#286", "risk_level": "High Risk", "risk_distance": 2000 }, "geometry": { "type": "Point", "coordinates": [ 121.5065, 24.9897 ] } },
{ "type": "Feature", "properties": { "name": "樹林區公所", "address": "鎮前街93號", "longitude": 121.424633, "latitude": 24.989981, "capacity": 215, "county": "新北市", "district": "鎮前街", "village": "樹東里", "disaster_types": "水災,震災,土石流", "indoor": true, "outdoor": false, "suitable_for_vulnerable": true, "manager": "社會人文課長 童冠璋", "phone": "02-26812106#1606", "risk_level": "Medium Risk", "risk_distance": 0 }, "geometry": { "type": "Point", "coordinates": [ 121.424633, 24.989981 ] } },
{ "type": "Feature", "properties": { "name": "樹林國小", "address": "育英街176號", "longitude": 121.418101, "latitude": 24.99003, "capacity": 304, "county": "新北市", "district": "育英街", "village": "樹西里", "disaster_types": "水災,震災,土石流,海嘯", "indoor": true, "outdoor": true, "suitable_for_vulnerable": false, "manager": "事務組長黃奎瑋", "phone": "26812014轉832", "risk_level": "Medium Risk", "risk_distance": 2000 }, "geometry": { "type": "Point", "coordinates": [ 121.418101, 24.99003 ] } },
{ "type": "Feature", "properties": { "name": "錦和國小", "address": "中和區圓通路292號", "longitude": 121.4893, "latitude": 24.9901, "capacity": 1173, "county": "新北市", "district": "中和區", "village": "錦中里", "disaster_types": "水災,震災,土石流,海嘯", "indoor": true, "outdoor": true, "suitable_for_vulnerable": true, "manager": "劉師政", "phone": "02-22482688#286", "risk_level": "High Risk", "risk_distance": 0 }, "geometry": { "type": "Point", "coordinates": [ 121.4893, 24.9901 ] } },
{ "type": "Feature", "properties": { "name": "木柵國小", "address": "文山區木柵路3段191號", "longitude": 121.5702, "latitude": 24.9903, "capacity": 155, "county": "臺北市", "district": "文山區", "village": null, "disaster_types": "水災,震災", "indoor": true, "outdoor": false, "suitable_for_vulnerable": false, "manager": "林光媚", "phone": "02-29391234#130", "risk_level": "High Risk", "risk_distance": 500 }, "geometry": { "type": "Point", "coordinates": [ 121.5702, 24.9903 ] } },
{ "type": "Feature", "properties": { "name": "石碇國小", "address": "石碇西街15號", "longitude": 121.659, "latitude": 24.9903, "capacity": 109, "county": "新北市", "district": "石碇西", "village": "石碇里", "disaster_types": "水災,震災,土石流,海嘯", "indoor": true, "outdoor": true, "suitable_for_vulnerable": true, "manager": "李炳坤/李玳辰", "phone": "02-26631244#13/#29", "risk_level": "Low Risk", "risk_distance": 0 }, "geometry": { "type": "Point", "coordinates": [ 121.659, 24.9903 ] } },
{ "type": "Feature", "properties": { "name": "萬興國小", "address": "文山區秀明路2段114號", "longitude": 121.5766, "latitude": 24.9904, "capacity": 125, "county": "臺北市", "district": "文山區", "village": "萬興里", "disaster_types": "水災,震災", "indoor": true, "outdoor": false, "suitable_for_vulnerable": true, "manager": "錢宜黎", "phone": "02-29381721#131", "risk_level": "High Risk", "risk_distance": 0 }, "geometry": { "type": "Point", "coordinates": [ 121.5766, 24.9904 ] } },
{ "type": "Feature", "properties": { "name": "信義國小", "address": "四川路二段245巷60號", "longitude": 121.4528, "latitude": 24.9917, "capacity": 1024, "county": "新北市", "district": "四川路", "village": "華德里", "disaster_types": "震災", "indoor": true, "outdoor": true, "suitable_for_vulnerable": false, "manager": "郭逸涵組長", "phone": "89667817122", "risk_level": "High Risk", "risk_distance": 500 }, "geometry": { "type": "Point", "coordinates": [ 121.4528, 24.9917 ] } },
{ "type": "Feature", "properties": { "name": "錦和中學", "address": "中和區錦和路163號", "longitude": 121.4911, "latitude": 24.9925, "capacity": 2543, "county": "新北市", "district": "中和區", "village": "錦中里", "disaster_types": "水災,震災,土石流,海嘯", "indoor": true, "outdoor": true, "suitable_for_vulnerable": true, "manager": "劉師政", "phone": "02-22482688＃286", "risk_level": "Medium Risk", "risk_distance": 0 }, "geometry": { "type": "Point", "coordinates": [ 121.4911, 24.9925 ] } },
{ "type": "Feature", "properties": { "name": "景美國中", "address": "文山區景中街27號", "longitude": 121.5429, "latitude": 24.993, "capacity": 80, "county": "臺北市", "district": "文山區", "village": null, "disaster_types": "水災,震災", "indoor": true, "outdoor": false, "suitable_for_vulnerable": false, "manager": "張光耀", "phone": "02-89353130#501", "risk_level": "Low Risk", "risk_distance": 2000 }, "geometry": { "type": "Point", "coordinates": [ 121.5429, 24.993 ] } },
{ "type": "Feature", "properties": { "name": "中和高中", "address": "中和區連城路460號", "longitude": 121.4783, "latitude": 24.994, "capacity": 2072, "county": "新北市", "district": "中和區", "village": "嘉慶里", "disaster_types": "水災,震災,土石流,海嘯", "indoor": true, "outdoor": true, "suitable_for_vulnerable": false, "manager": "劉師政", "phone": "02-22482688#286", "risk_level": "High Risk", "risk_distance": 0 }, "geometry": { "type": "Point", "coordinates": [ 121.4783, 24.994 ] } },
{ "type": "Feature", "properties": { "name": "溪口國小", "address": "文山區景福街225號", "longitude": 121.5387, "latitude": 24.9941, "capacity": 90, "county": "臺北市", "district": "文山區", "village": null, "disaster_types": "水災,震災", "indoor": true, "outdoor": false, "suitable_for_vulnerable": true, "manager": "劉家森", "phone": "29350955＃715", "risk_level": "Medium Risk", "risk_distance": 500 }, "geometry": { "type": "Point", "coordinates": [ 121.5387, 24.9941 ] } },
{ "type": "Feature", "properties": { "name": "秀山國小", "address": "中和區立人街2號", "longitude": 121.5212, "latitude": 24.9942, "capacity": 4228, "county": "新北市", "district": "中和區", "village": "秀山里", "disaster_types": "水災,震災,土石流,海嘯", "indoor": true, "outdoor": true, "suitable_for_vulnerable": true, "manager": "劉師政", "phone": "02-22482688＃286", "risk_level": "Low Risk", "risk_distance": 2000 }, "geometry": { "type": "Point", "coordinates": [ 121.5212, 24.9942 ] } },
{ "type": "Feature", "properties": { "name": "重慶國小", "address": "廣和街31號", "longitude": 121.4624, "latitude": 24.9945, "capacity": 2135, "county": "新北市", "district": "廣和街", "village": "五權里", "disaster_types": "水災,震災,土石流,海嘯", "indoor": true, "outdoor": true, "suitable_for_vulnerable": false, "manager": "方素英組長", "phone": "29565592305", "risk_level": "High Risk", "risk_distance": 500 }, "geometry": { "type": "Point", "coordinates": [ 121.4624, 24.9945 ] } },
{ "type": "Feature", "properties": { "name": "景華公園", "address": "臺北市文山區景興路與景華街交叉口", "longitude": 121.5446, "latitude": 24.9956, "capacity": 1350, "county": "臺北市", "district": "臺北市文山區", "village": null, "disaster_types": "震災", "indoor": false, "outdoor": true, "suitable_for_vulnerable": true, "manager": "高奕翔", "phone": "2788-4255", "risk_level": "Low Risk", "risk_distance": 500 }, "geometry": { "type": "Point", "coordinates": [ 121.5446, 24.9956 ] } },
{ "type": "Feature", "properties": { "name": "智光商工", "address": "永和區智光里中正路100號", "longitude": 121.5143, "latitude": 24.9957, "capacity": 722, "county": "新北市", "district": "永和區", "village": "智光里", "disaster_types": "震災,土石流,海嘯", "indoor": true, "outdoor": true, "suitable_for_vulnerable": false, "manager": "張傳奇", "phone": "29432491#220", "risk_level": "Medium Risk", "risk_distance": 1000 }, "geometry": { "type": "Point", "coordinates": [ 121.5143, 24.9957 ] } },
{ "type": "Feature", "properties": { "name": "木柵高工", "address": "文山區木柵路4段77號", "longitude": 121.5719, "latitude": 24.9959, "capacity": 169, "county": "臺北市", "district": "文山區", "village": null, "disaster_types": "水災,震災", "indoor": true, "outdoor": false, "suitable_for_vulnerable": false, "manager": "蔡明雄", "phone": "02-22300506#601", "risk_level": "Medium Risk", "risk_distance": 1000 }, "geometry": { "type": "Point", "coordinates": [ 121.5719, 24.9959 ] } },
{ "type": "Feature", "properties": { "name": "景興國小", "address": "文山區景華街150巷21號", "longitude": 121.5482, "latitude": 24.9961, "capacity": 126, "county": "臺北市", "district": "文山區", "village": "興安里", "disaster_types": "水災,震災", "indoor": true, "outdoor": false, "suitable_for_vulnerable": false, "manager": "張郁敏", "phone": "02-29329438#41", "risk_level": "Medium Risk", "risk_distance": 500 }, "geometry": { "type": "Point", "coordinates": [ 121.5482, 24.9961 ] } },
{ "type": "Feature", "properties": { "name": "景興國中", "address": "文山區景興路46巷2號", "longitude": 121.5443, "latitude": 24.9962, "capacity": 100, "county": "臺北市", "district": "文山區", "village": null, "disaster_types": "水災,震災", "indoor": true, "outdoor": false, "suitable_for_vulnerable": false, "manager": "朱美銀", "phone": "02-29323794#130", "risk_level": "Medium Risk", "risk_distance": 500 }, "geometry": { "type": "Point", "coordinates": [ 121.5443, 24.9962 ] } },
{ "type": "Feature", "properties": { "name": "臺北市文山運動中心", "address": "興隆路三段222號", "longitude": 121.5443, "latitude": 24.9962, "capacity": 189, "county": "臺北市", "district": "興隆路", "village": "興得里", "disaster_types": "震災", "indoor": true, "outdoor": false, "suitable_for_vulnerable": false, "manager": "劉宜庭", "phone": "2570-2330轉6423", "risk_level": "High Risk", "risk_distance": 500 }, "geometry": { "type": "Point", "coordinates": [ 121.5443, 24.9962 ] } },
{ "type": "Feature", "properties": { "name": "文林國小", "address": "千歲街59號", "longitude": 121.426072, "latitude": 24.997757, "capacity": 1151, "county": "新北市", "district": "千歲街", "village": "潭底里", "disaster_types": "震災,土石流", "indoor": true, "outdoor": true, "suitable_for_vulnerable": false, "manager": "事務組長安臺興", "phone": "26812625轉841", "risk_level": "Low Risk", "risk_distance": 1000 }, "geometry": { "type": "Point", "coordinates": [ 121.426072, 24.997757 ] } },
{ "type": "Feature", "properties": { "name": "民權市民活動中心", "address": "永和區民族里民權路60號", "longitude": 121.5199, "latitude": 24.998, "capacity": 125, "county": "新北市", "district": "永和區", "village": "民族里", "disaster_types": "水災,震災,土石流,海嘯", "indoor": true, "outdoor": false, "suitable_for_vulnerable": false, "manager": "王晨燁", "phone": "29282828#111", "risk_level": "Medium Risk", "risk_distance": 1000 }, "geometry": { "type": "Point", "coordinates": [ 121.5199, 24.998 ] } },
{ "type": "Feature", "properties": { "name": "重慶國中", "address": "國慶路221號", "longitude": 121.4632, "latitude": 24.9982, "capacity": 2826, "county": "新北市", "district": "國慶路", "village": "重慶里", "disaster_types": "水災,震災,土石流,海嘯", "indoor": true, "outdoor": true, "suitable_for_vulnerable": false, "manager": "陳冠樺組長", "phone": "29543001504", "risk_level": "High Risk", "risk_distance": 0 }, "geometry": { "type": "Point", "coordinates": [ 121.4632, 24.9982 ] } },
{ "type": "Feature", "properties": { "name": "中和區公所", "address": "中和區景平路634之2號", "longitude": 121.5002, "latitude": 24.9982, "capacity": 65, "county": "新北市", "district": "中和區", "village": "漳和里", "disaster_types": "水災,震災,土石流,海嘯", "indoor": true, "outdoor": false, "suitable_for_vulnerable": true, "manager": "劉師政", "phone": "02-22482688＃286", "risk_level": "High Risk", "risk_distance": 0 }, "geometry": { "type": "Point", "coordinates": [ 121.5002, 24.9982 ] } },
{ "type": "Feature", "properties": { "name": "阿柔市民活動中心", "address": "阿柔里阿柔洋62號", "longitude": 121.6072, "latitude": 24.9983, "capacity": 57, "county": "新北市", "district": "阿柔里", "village": "阿柔里", "disaster_types": "震災,土石流,海嘯", "indoor": true, "outdoor": false, "suitable_for_vulnerable": true, "manager": "羅定國林進發", "phone": "2.66E+15", "risk_level": "Medium Risk", "risk_distance": 500 }, "geometry": { "type": "Point", "coordinates": [ 121.6072, 24.9983 ] } },
{ "type": "Feature", "properties": { "name": "溪崑國中", "address": "大觀路三段50巷30號", "longitude": 121.4313, "latitude": 24.9984, "capacity": 785, "county": "新北市", "district": "大觀路", "village": "崑崙里", "disaster_types": "水災,震災", "indoor": true, "outdoor": true, "suitable_for_vulnerable": true, "manager": "彭素櫻組長", "phone": "26869729383", "risk_level": "Medium Risk", "risk_distance": 2000 }, "geometry": { "type": "Point", "coordinates": [ 121.4313, 24.9984 ] } },
{ "type": "Feature", "properties": { "name": "自強國小", "address": "中和區莒光路200號", "longitude": 121.4719, "latitude": 24.9985, "capacity": 562, "county": "新北市", "district": "中和區", "village": "自強里", "disaster_types": "水災,震災,土石流,海嘯", "indoor": true, "outdoor": true, "suitable_for_vulnerable": true, "manager": "劉師政", "phone": "02-22482688＃286", "risk_level": "High Risk", "risk_distance": 2000 }, "geometry": { "type": "Point", "coordinates": [ 121.4719, 24.9985 ] } },
{ "type": "Feature", "properties": { "name": "志清國小", "address": "文山區景福街21巷5號", "longitude": 121.5388, "latitude": 24.9987, "capacity": 35, "county": "臺北市", "district": "文山區", "village": null, "disaster_types": "水災,震災", "indoor": true, "outdoor": false, "suitable_for_vulnerable": true, "manager": "王信傑", "phone": "02-29323875#40", "risk_level": "Medium Risk", "risk_distance": 1000 }, "geometry": { "type": "Point", "coordinates": [ 121.5388, 24.9987 ] } },
{ "type": "Feature", "properties": { "name": "自強國中", "address": "中和區莒光路191號", "longitude": 121.4726, "latitude": 24.9988, "capacity": 936, "county": "新北市", "district": "中和區", "village": "明穗里", "disaster_types": "水災,震災,土石流,海嘯", "indoor": true, "outdoor": true, "suitable_for_vulnerable": false, "manager": "劉師政", "phone": "02-22482688#286", "risk_level": "High Risk", "risk_distance": 1000 }, "geometry": { "type": "Point", "coordinates": [ 121.4726, 24.9988 ] } },
{ "type": "Feature", "properties": { "name": "興華國小", "address": "臺北市文山區興隆路3段125巷6號", "longitude": 121.5587, "latitude": 24.9988, "capacity": 30, "county": "臺北市", "district": "臺北市文山區", "village": null, "disaster_types": "水災,震災", "indoor": true, "outdoor": false, "suitable_for_vulnerable": false, "manager": "呂昌諭", "phone": "02-22393070#130", "risk_level": "Medium Risk", "risk_distance": 1000 }, "geometry": { "type": "Point", "coordinates": [ 121.5587, 24.9988 ] } },
{ "type": "Feature", "properties": { "name": "積穗國小", "address": "中和區員山路154號", "longitude": 121.4814, "latitude": 24.9991, "capacity": 545, "county": "新北市", "district": "中和區", "village": "文元里", "disaster_types": "水災,震災,土石流,海嘯", "indoor": true, "outdoor": true, "suitable_for_vulnerable": true, "manager": "劉師政", "phone": "02-22482688#286", "risk_level": "High Risk", "risk_distance": 500 }, "geometry": { "type": "Point", "coordinates": [ 121.4814, 24.9991 ] } },
{ "type": "Feature", "properties": { "name": "秀朗國小", "address": "永和區民權里得和路202號", "longitude": 121.5214, "latitude": 24.9997, "capacity": 2124, "county": "新北市", "district": "永和區", "village": "民權里", "disaster_types": "水災,震災,土石流,海嘯", "indoor": true, "outdoor": true, "suitable_for_vulnerable": false, "manager": "劉思亭", "phone": "02-29420451#5502", "risk_level": "Medium Risk", "risk_distance": 2000 }, "geometry": { "type": "Point", "coordinates": [ 121.5214, 24.9997 ] } },
{ "type": "Feature", "properties": { "name": "中和國小", "address": "中和區中和路100號", "longitude": 121.5016, "latitude": 24.9999, "capacity": 2866, "county": "新北市", "district": "中和區", "village": "漳和里", "disaster_types": "水災,震災,土石流,海嘯", "indoor": true, "outdoor": true, "suitable_for_vulnerable": true, "manager": "劉師政", "phone": "02-22482688＃286", "risk_level": "Medium Risk", "risk_distance": 0 }, "geometry": { "type": "Point", "coordinates": [ 121.5016, 24.9999 ] } },
{ "type": "Feature", "properties": { "name": "士東國小", "address": "中山北路六段392號", "longitude": 121.0, "latitude": 25.0, "capacity": 63, "county": "臺北市", "district": "中山北", "village": "蘭雅里", "disaster_types": null, "indoor": false, "outdoor": false, "suitable_for_vulnerable": false, "manager": "吳志豪", "phone": "02-28710064", "risk_level": "Low Risk", "risk_distance": 500 }, "geometry": { "type": "Point", "coordinates": [ 121.0, 25.0 ] } },
{ "type": "Feature", "properties": { "name": "積穗國中", "address": "中和區民安街66號", "longitude": 121.4798, "latitude": 25.0004, "capacity": 597, "county": "新北市", "district": "中和區", "village": "嘉新里", "disaster_types": "水災,震災,土石流,海嘯", "indoor": true, "outdoor": true, "suitable_for_vulnerable": false, "manager": "劉師政", "phone": "02-22482688＃286", "risk_level": "High Risk", "risk_distance": 0 }, "geometry": { "type": "Point", "coordinates": [ 121.4798, 25.0004 ] } },
{ "type": "Feature", "properties": { "name": "萬芳高中", "address": "文山區興隆路3段115巷1號", "longitude": 121.5588, "latitude": 25.0005, "capacity": 131, "county": "臺北市", "district": "文山區", "village": null, "disaster_types": "水災,震災", "indoor": true, "outdoor": false, "suitable_for_vulnerable": false, "manager": "張盈霏", "phone": "02-22309585#500", "risk_level": "Medium Risk", "risk_distance": 0 }, "geometry": { "type": "Point", "coordinates": [ 121.5588, 25.0005 ] } },
{ "type": "Feature", "properties": { "name": "萬順市民活動中心", "address": "萬順里北深路3段107巷26號", "longitude": 121.6041, "latitude": 25.0008, "capacity": 22, "county": "新北市", "district": "萬順里", "village": "萬順里", "disaster_types": "震災,土石流,海嘯", "indoor": true, "outdoor": false, "suitable_for_vulnerable": false, "manager": "楊文得-許添丁", "phone": "26622208-26621959", "risk_level": "High Risk", "risk_distance": 500 }, "geometry": { "type": "Point", "coordinates": [ 121.6041, 25.0008 ] } },
{ "type": "Feature", "properties": { "name": "鶴齡交誼中心", "address": "廟美街6巷3號2、4樓", "longitude": 121.5011, "latitude": 25.0014, "capacity": 82, "county": "新北市", "district": "廟美街", "village": "枋寮里", "disaster_types": "水災,震災,土石流,海嘯", "indoor": true, "outdoor": false, "suitable_for_vulnerable": true, "manager": "劉師政", "phone": "02-22482688#286", "risk_level": "Low Risk", "risk_distance": 0 }, "geometry": { "type": "Point", "coordinates": [ 121.5011, 25.0014 ] } },
{ "type": "Feature", "properties": { "name": "南山高中", "address": "中和區廣福路41號", "longitude": 121.5034, "latitude": 25.0016, "capacity": 2130, "county": "新北市", "district": "中和區", "village": "枋寮里", "disaster_types": "水災,震災,土石流,海嘯", "indoor": true, "outdoor": true, "suitable_for_vulnerable": false, "manager": "劉師政", "phone": "02-22482688＃286", "risk_level": "Low Risk", "risk_distance": 2000 }, "geometry": { "type": "Point", "coordinates": [ 121.5034, 25.0016 ] } },
{ "type": "Feature", "properties": { "name": "興德國小", "address": "文山區興隆路2段235號", "longitude": 121.5508, "latitude": 25.0017, "capacity": 30, "county": "臺北市", "district": "文山區", "village": null, "disaster_types": "水災,震災", "indoor": true, "outdoor": false, "suitable_for_vulnerable": false, "manager": "朱雅菁", "phone": "02-29329431#35", "risk_level": "High Risk", "risk_distance": 0 }, "geometry": { "type": "Point", "coordinates": [ 121.5508, 25.0017 ] } },
{ "type": "Feature", "properties": { "name": "深坑國中", "address": "深坑里文化路41號", "longitude": 121.6183, "latitude": 25.0017, "capacity": 304, "county": "新北市", "district": "深坑里", "village": "深坑里", "disaster_types": "水災,震災,土石流,海嘯", "indoor": true, "outdoor": true, "suitable_for_vulnerable": true, "manager": "陳春男-林玉葉", "phone": "2662145510-2662145517", "risk_level": "Medium Risk", "risk_distance": 2000 }, "geometry": { "type": "Point", "coordinates": [ 121.6183, 25.0017 ] } },
{ "type": "Feature", "properties": { "name": "深坑國小", "address": "深坑里文化路45號", "longitude": 121.6169, "latitude": 25.0018, "capacity": 632, "county": "新北市", "district": "深坑里", "village": "深坑里", "disaster_types": "水災,震災,土石流,海嘯", "indoor": true, "outdoor": true, "suitable_for_vulnerable": true, "manager": "張嘉榮-陳佑瑜", "phone": "02-26624675", "risk_level": "Low Risk", "risk_distance": 2000 }, "geometry": { "type": "Point", "coordinates": [ 121.6169, 25.0018 ] } },
{ "type": "Feature", "properties": { "name": "萬芳國小", "address": "文山區萬和街1號", "longitude": 121.5673, "latitude": 25.0019, "capacity": 135, "county": "臺北市", "district": "文山區", "village": "萬美里", "disaster_types": "水災,震災", "indoor": true, "outdoor": false, "suitable_for_vulnerable": false, "manager": "何寶妍", "phone": "2230-1232#31", "risk_level": "Medium Risk", "risk_distance": 2000 }, "geometry": { "type": "Point", "coordinates": [ 121.5673, 25.0019 ] } },
{ "type": "Feature", "properties": { "name": "武林國小", "address": "保安街二段151號", "longitude": 121.415438, "latitude": 25.002028, "capacity": 822, "county": "新北市", "district": "保安街", "village": "金寮里", "disaster_types": "震災,土石流,海嘯", "indoor": true, "outdoor": true, "suitable_for_vulnerable": false, "manager": "事務組長陳寶賢", "phone": "26812475轉831", "risk_level": "Medium Risk", "risk_distance": 1000 }, "geometry": { "type": "Point", "coordinates": [ 121.415438, 25.002028 ] } },
{ "type": "Feature", "properties": { "name": "博嘉國小", "address": "文山區木柵路4段159巷14之1號", "longitude": 121.5758, "latitude": 25.0021, "capacity": 30, "county": "臺北市", "district": "文山區", "village": null, "disaster_types": "水災,震災", "indoor": true, "outdoor": false, "suitable_for_vulnerable": false, "manager": "陳逸儒", "phone": "02-22302585#130", "risk_level": "High Risk", "risk_distance": 0 }, "geometry": { "type": "Point", "coordinates": [ 121.5758, 25.0021 ] } },
{ "type": "Feature", "properties": { "name": "中山國小", "address": "大觀路二段59巷31號", "longitude": 121.4477, "latitude": 25.0023, "capacity": 1136, "county": "新北市", "district": "大觀路", "village": "中山里", "disaster_types": "震災", "indoor": true, "outdoor": true, "suitable_for_vulnerable": false, "manager": "林柏丞組長", "phone": "22755313222", "risk_level": "High Risk", "risk_distance": 500 }, "geometry": { "type": "Point", "coordinates": [ 121.4477, 25.0023 ] } },
{ "type": "Feature", "properties": { "name": "興隆國小", "address": "文山區福興路2號", "longitude": 121.5519, "latitude": 25.0024, "capacity": 133, "county": "臺北市", "district": "文山區", "village": "興旺里", "disaster_types": "水災,震災", "indoor": true, "outdoor": false, "suitable_for_vulnerable": true, "manager": "張仁傑", "phone": "02-29323131#511", "risk_level": "Low Risk", "risk_distance": 500 }, "geometry": { "type": "Point", "coordinates": [ 121.5519, 25.0024 ] } },
{ "type": "Feature", "properties": { "name": "深坑市民活動中心", "address": "深坑里北深路2段166號", "longitude": 121.6147, "latitude": 25.0025, "capacity": 36, "county": "新北市", "district": "深坑里", "village": "深坑里", "disaster_types": "水災,震災,土石流,海嘯", "indoor": true, "outdoor": false, "suitable_for_vulnerable": false, "manager": "張松林-張阿免", "phone": "26622723-26624911", "risk_level": "Low Risk", "risk_distance": 0 }, "geometry": { "type": "Point", "coordinates": [ 121.6147, 25.0025 ] } },
{ "type": "Feature", "properties": { "name": "深坑區公所", "address": "深坑里深坑街10號", "longitude": 121.616, "latitude": 25.0025, "capacity": 100, "county": "新北市", "district": "深坑里", "village": "深坑里", "disaster_types": "水災,震災,土石流,海嘯", "indoor": true, "outdoor": false, "suitable_for_vulnerable": false, "manager": "陳東梧", "phone": "02-26623116256", "risk_level": "Medium Risk", "risk_distance": 1000 }, "geometry": { "type": "Point", "coordinates": [ 121.616, 25.0025 ] } },
{ "type": "Feature", "properties": { "name": "漳和國中", "address": "中和區廣福路39號", "longitude": 121.5055, "latitude": 25.0027, "capacity": 1067, "county": "新北市", "district": "中和區", "village": "枋寮里", "disaster_types": "水災,震災,土石流,海嘯", "indoor": true, "outdoor": true, "suitable_for_vulnerable": true, "manager": "劉師政", "phone": "02-22482688＃286", "risk_level": "Medium Risk", "risk_distance": 1000 }, "geometry": { "type": "Point", "coordinates": [ 121.5055, 25.0027 ] } },
{ "type": "Feature", "properties": { "name": "興德里營區", "address": "興德路55號", "longitude": 121.5571, "latitude": 25.0029, "capacity": 200, "county": "臺北市", "district": "興德路", "village": "興昌里", "disaster_types": "水災,震災", "indoor": true, "outdoor": false, "suitable_for_vulnerable": false, "manager": "李德龍上尉", "phone": "02-23140177", "risk_level": "Medium Risk", "risk_distance": 2000 }, "geometry": { "type": "Point", "coordinates": [ 121.5571, 25.0029 ] } },
{ "type": "Feature", "properties": { "name": "後埔國小", "address": "重慶路157號", "longitude": 121.4627, "latitude": 25.0033, "capacity": 703, "county": "新北市", "district": "重慶路", "village": "福星里", "disaster_types": "水災,震災", "indoor": true, "outdoor": true, "suitable_for_vulnerable": false, "manager": "林淑茹組長", "phone": "29614142-50", "risk_level": "Low Risk", "risk_distance": 0 }, "geometry": { "type": "Point", "coordinates": [ 121.4627, 25.0033 ] } },
{ "type": "Feature", "properties": { "name": "復興商工", "address": "永和區得和里秀朗路一段201號", "longitude": 121.5186, "latitude": 25.0035, "capacity": 827, "county": "新北市", "district": "永和區", "village": "得和里", "disaster_types": "水災,震災,土石流,海嘯", "indoor": true, "outdoor": true, "suitable_for_vulnerable": false, "manager": "羅保羅", "phone": "02-29262121223", "risk_level": "Low Risk", "risk_distance": 0 }, "geometry": { "type": "Point", "coordinates": [ 121.5186, 25.0035 ] } },
{ "type": "Feature", "properties": { "name": "永和國小", "address": "永和區潭墘里秀朗路一段120號", "longitude": 121.517, "latitude": 25.0036, "capacity": 1329, "county": "新北市", "district": "永和區", "village": "潭墘里", "disaster_types": "水災,震災,土石流,海嘯", "indoor": true, "outdoor": true, "suitable_for_vulnerable": false, "manager": "賀仲民", "phone": "29214615#401", "risk_level": "Low Risk", "risk_distance": 500 }, "geometry": { "type": "Point", "coordinates": [ 121.517, 25.0036 ] } },
{ "type": "Feature", "properties": { "name": "武功國小", "address": "臺北市文山區興隆路1段68號", "longitude": 121.5405, "latitude": 25.0039, "capacity": 50, "county": "臺北市", "district": "臺北市文山區", "village": null, "disaster_types": "水災,震災", "indoor": true, "outdoor": false, "suitable_for_vulnerable": false, "manager": "陳冠任", "phone": "02-29314360#19", "risk_level": "Low Risk", "risk_distance": 0 }, "geometry": { "type": "Point", "coordinates": [ 121.5405, 25.0039 ] } },
{ "type": "Feature", "properties": { "name": "福和國中", "address": "永和區秀和里永利路71號", "longitude": 121.5209, "latitude": 25.004, "capacity": 1401, "county": "新北市", "district": "永和區", "village": "秀和里", "disaster_types": "水災,震災,土石流,海嘯", "indoor": true, "outdoor": true, "suitable_for_vulnerable": false, "manager": "黃議賢", "phone": "02-29289493#261", "risk_level": "Medium Risk", "risk_distance": 1000 }, "geometry": { "type": "Point", "coordinates": [ 121.5209, 25.004 ] } },
{ "type": "Feature", "properties": { "name": "東南科技大學", "address": "萬福里北深路3段152號", "longitude": 121.6047, "latitude": 25.0044, "capacity": 916, "county": "新北市", "district": "萬福里", "village": "萬福里", "disaster_types": "水災,震災,土石流,海嘯", "indoor": true, "outdoor": true, "suitable_for_vulnerable": true, "manager": "王辰祉-黃志衡", "phone": "86625802-86625802-86625800夜", "risk_level": "High Risk", "risk_distance": 0 }, "geometry": { "type": "Point", "coordinates": [ 121.6047, 25.0044 ] } },
{ "type": "Feature", "properties": { "name": "忠孝國中", "address": "成都街30號", "longitude": 121.4616, "latitude": 25.0048, "capacity": 191, "county": "新北市", "district": "成都街", "village": "福星里", "disaster_types": "水災,震災,土石流,海嘯", "indoor": true, "outdoor": true, "suitable_for_vulnerable": false, "manager": "黃莉晴組長", "phone": "29631350232", "risk_level": "High Risk", "risk_distance": 500 }, "geometry": { "type": "Point", "coordinates": [ 121.4616, 25.0048 ] } },
{ "type": "Feature", "properties": { "name": "萬福國小", "address": "文山區羅斯福路5段170巷32號", "longitude": 121.5367, "latitude": 25.0048, "capacity": 32, "county": "臺北市", "district": "文山區", "village": null, "disaster_types": "水災,震災", "indoor": true, "outdoor": false, "suitable_for_vulnerable": false, "manager": "呂昌諭", "phone": "02-22393070#130", "risk_level": "Low Risk", "risk_distance": 2000 }, "geometry": { "type": "Point", "coordinates": [ 121.5367, 25.0048 ] } },
{ "type": "Feature", "properties": { "name": "興福國中", "address": "文山區福興路80號", "longitude": 121.5497, "latitude": 25.0049, "capacity": 300, "county": "臺北市", "district": "文山區", "village": null, "disaster_types": "水災,震災", "indoor": true, "outdoor": false, "suitable_for_vulnerable": false, "manager": "詹琦斌", "phone": "02-29322024#400", "risk_level": "Medium Risk", "risk_distance": 500 }, "geometry": { "type": "Point", "coordinates": [ 121.5497, 25.0049 ] } },
{ "type": "Feature", "properties": { "name": "昇高市民活動中心", "address": "昇高里旺耽路25號", "longitude": 121.6287, "latitude": 25.0049, "capacity": 87, "county": "新北市", "district": "昇高里", "village": "昇高里", "disaster_types": "水災,震災,土石流,海嘯", "indoor": true, "outdoor": false, "suitable_for_vulnerable": true, "manager": "李傳震潘淑妙", "phone": "2.66E+15", "risk_level": "High Risk", "risk_distance": 500 }, "geometry": { "type": "Point", "coordinates": [ 121.6287, 25.0049 ] } },
{ "type": "Feature", "properties": { "name": "實踐國小", "address": "實踐路93巷51號", "longitude": 121.4664, "latitude": 25.005, "capacity": 1018, "county": "新北市", "district": "實踐路", "village": "國泰里", "disaster_types": "水災,土石流", "indoor": true, "outdoor": true, "suitable_for_vulnerable": false, "manager": "黃宜寧組長", "phone": "29531233142", "risk_level": "High Risk", "risk_distance": 2000 }, "geometry": { "type": "Point", "coordinates": [ 121.4664, 25.005 ] } },
{ "type": "Feature", "properties": { "name": "東勢市民活動中心", "address": "竿蓁林62-1號", "longitude": 121.7508, "latitude": 25.0052, "capacity": 25, "county": "新北市", "district": "竿蓁林", "village": "東勢里", "disaster_types": "水災,震災,土石流", "indoor": true, "outdoor": false, "suitable_for_vulnerable": false, "manager": "李元裕", "phone": "02-24951510#151", "risk_level": "Medium Risk", "risk_distance": 500 }, "geometry": { "type": "Point", "coordinates": [ 121.7508, 25.0052 ] } },
{ "type": "Feature", "properties": { "name": "嶺腳市民活動中心", "address": "嶺腳寮14號", "longitude": 121.7508, "latitude": 25.0052, "capacity": 47, "county": "新北市", "district": "嶺腳寮", "village": "嶺腳里", "disaster_types": "水災,震災,土石流", "indoor": true, "outdoor": false, "suitable_for_vulnerable": true, "manager": "李元裕", "phone": "02-24951510#151", "risk_level": "High Risk", "risk_distance": 500 }, "geometry": { "type": "Point", "coordinates": [ 121.7508, 25.0052 ] } },
{ "type": "Feature", "properties": { "name": "直潭派出所", "address": "新北市新店區直潭十街2號", "longitude": 121.456585, "latitude": 25.005939, "capacity": 75, "county": "新北市", "district": "新北市新店區", "village": "塗潭里", "disaster_types": "水災,震災,土石流", "indoor": false, "outdoor": false, "suitable_for_vulnerable": false, "manager": "吳英同", "phone": "29112281#1209", "risk_level": "High Risk", "risk_distance": 0 }, "geometry": { "type": "Point", "coordinates": [ 121.456585, 25.005939 ] } },
{ "type": "Feature", "properties": { "name": "山北市民活動中心", "address": "莊敬路49巷29弄2號", "longitude": 121.5016, "latitude": 25.0061, "capacity": 92, "county": "新北市", "district": "莊敬路", "village": "福美里", "disaster_types": "水災,震災,土石流,海嘯", "indoor": true, "outdoor": false, "suitable_for_vulnerable": false, "manager": "劉師政", "phone": "02-22482688#286", "risk_level": "Medium Risk", "risk_distance": 0 }, "geometry": { "type": "Point", "coordinates": [ 121.5016, 25.0061 ] } },
{ "type": "Feature", "properties": { "name": "辛亥國小", "address": "文山區辛亥路4段103號", "longitude": 121.5585, "latitude": 25.0063, "capacity": 30, "county": "臺北市", "district": "文山區", "village": null, "disaster_types": "水災,震災", "indoor": true, "outdoor": false, "suitable_for_vulnerable": false, "manager": "劉正湖", "phone": "02-29357282#141", "risk_level": "Medium Risk", "risk_distance": 2000 }, "geometry": { "type": "Point", "coordinates": [ 121.5585, 25.0063 ] } },
{ "type": "Feature", "properties": { "name": "三多國中", "address": "三多路101號", "longitude": 121.414672, "latitude": 25.006414, "capacity": 847, "county": "新北市", "district": "三多路", "village": "?寮里", "disaster_types": "震災,土石流,海嘯", "indoor": true, "outdoor": true, "suitable_for_vulnerable": false, "manager": "事務組長林正忠", "phone": "86881501#502", "risk_level": "Medium Risk", "risk_distance": 0 }, "geometry": { "type": "Point", "coordinates": [ 121.414672, 25.006414 ] } },
{ "type": "Feature", "properties": { "name": "永和國中", "address": "永和區秀和里國中路111號", "longitude": 121.5233, "latitude": 25.0067, "capacity": 1109, "county": "新北市", "district": "永和區", "village": "秀和里", "disaster_types": "水災,震災,土石流,海嘯", "indoor": true, "outdoor": true, "suitable_for_vulnerable": false, "manager": "劉康君", "phone": "29218878#203", "risk_level": "High Risk", "risk_distance": 0 }, "geometry": { "type": "Point", "coordinates": [ 121.5233, 25.0067 ] } },
{ "type": "Feature", "properties": { "name": "育才國小", "address": "永和區永貞里福和路125巷20號", "longitude": 121.5216, "latitude": 25.0071, "capacity": 207, "county": "新北市", "district": "永和區", "village": "永貞里", "disaster_types": "水災,震災,土石流,海嘯", "indoor": true, "outdoor": true, "suitable_for_vulnerable": true, "manager": "詹心儀", "phone": "29214630#630", "risk_level": "Low Risk", "risk_distance": 500 },